[{"id":39,"city":"Sanaa","lat":15.3547,"lng":44.2066,"country":"Yemen","population":2008000.0},{"id":40,"city":"Marib","lat":15.421,"lng":45.334,"country":"Yemen","population":16794.0},{"id":42,"city":"Hajjah","lat":15.6917,"lng":43.6021,"country":"Yemen","population":208287.0},{"id":43,"city":"Ibb","lat":13.9759,"lng":44.1709,"country":"Yemen","population":234837.0},{"id":44,"city":"Al Hudaydah","lat":14.7979,"lng":42.953,"country":"Yemen","population":780000.0},{"id":45,"city":"Lahij","lat":13.0582,"lng":44.8838,"country":"Yemen","population":66288.0},{"id":47,"city":"Taizz","lat":13.6045,"lng":44.0394,"country":"Yemen","population":751000.0},{"id":48,"city":"Sadah","lat":16.9398,"lng":43.8498,"country":"Yemen","population":105542.0},{"id":49,"city":"Dhamar","lat":14.5575,"lng":44.3875,"country":"Yemen","population":191259.0},{"id":52,"city":"Saywun","lat":15.943,"lng":48.7873,"country":"Yemen","population":68747.0},{"id":53,"city":"Al Bayda","lat":13.979,"lng":45.574,"country":"Yemen","population":37821.0},{"id":55,"city":"Rida","lat":14.4295,"lng":44.8341,"country":"Yemen","population":45233.0},{"id":56,"city":"'Ataq","lat":14.55,"lng":46.8,"country":"Yemen","population":37315.0},{"id":57,"city":"Al Ghaydah","lat":16.2394,"lng":52.1638,"country":"Yemen","population":27404.0},{"id":58,"city":"Sayhut","lat":15.2105,"lng":51.2454,"country":"Yemen","population":189.0},{"id":59,"city":"Al Mukalla","lat":14.5412,"lng":49.1259,"country":"Yemen","population":258132.0},{"id":61,"city":"Zab\u012bd","lat":14.1951,"lng":43.3155,"country":"Yemen","population":152504.0},{"id":62,"city":"Aden","lat":12.7797,"lng":45.0095,"country":"Yemen","population":1000000.0},{"id":63,"city":"Hadiboh","lat":12.6519,"lng":54.0239,"country":"Yemen","population":11396.0},{"id":64,"city":"Ash Shihr","lat":14.7593,"lng":49.6092,"country":"Yemen","population":54274.0},{"id":65,"city":"Dzaoudzi","lat":-12.7871,"lng":45.275,"country":"Mayotte","population":32057.0},{"id":66,"city":"Lebowakgomo","lat":-24.1996,"lng":29.5,"country":"South Africa","population":33308.0},{"id":67,"city":"Potchefstroom","lat":-26.6996,"lng":27.1,"country":"South Africa","population":123669.0},{"id":68,"city":"Graaff Reinet","lat":-32.3,"lng":24.54,"country":"South Africa","population":62896.0},{"id":69,"city":"Rustenburg","lat":-25.65,"lng":27.24,"country":"South Africa","population":165976.0},{"id":70,"city":"Brandfort","lat":-28.6996,"lng":26.47,"country":"South Africa","population":12091.0},{"id":71,"city":"Vryheid","lat":-27.76,"lng":30.79,"country":"South Africa","population":150012.0},{"id":72,"city":"Vereeniging","lat":-26.6496,"lng":27.96,"country":"South Africa","population":1074000.0},{"id":73,"city":"Brits","lat":-25.6296,"lng":27.78,"country":"South Africa","population":122497.0},{"id":74,"city":"Bethlehem","lat":-28.2196,"lng":28.3,"country":"South Africa","population":83654.0},{"id":75,"city":"Ubomba","lat":-27.5661,"lng":32.0833,"country":"South Africa","population":564.0},{"id":76,"city":"Polokwane","lat":-23.89,"lng":29.45,"country":"South Africa","population":220045.0},{"id":77,"city":"Springbok","lat":-29.6667,"lng":17.8833,"country":"South Africa","population":10438.0},{"id":78,"city":"Thohoyandou","lat":-22.95,"lng":30.48,"country":"South Africa","population":269707.0},{"id":79,"city":"Pietermaritzburg","lat":-29.61,"lng":30.39,"country":"South Africa","population":750845.0},{"id":80,"city":"Poffader","lat":-29.1329,"lng":19.3834,"country":"South Africa","population":4220.0},{"id":81,"city":"Carnarvon","lat":-30.9496,"lng":22.1333,"country":"South Africa","population":5785.0},{"id":82,"city":"Kroonstad","lat":-27.66,"lng":27.21,"country":"South Africa","population":103992.0},{"id":83,"city":"Alexander Bay","lat":-28.6083,"lng":16.5033,"country":"South Africa","population":1500.0},{"id":84,"city":"Bloemhof","lat":-27.6496,"lng":25.59,"country":"South Africa","population":17122.0},{"id":85,"city":"Hermanus","lat":-34.4096,"lng":19.2299,"country":"South Africa","population":25153.0},{"id":86,"city":"Bethal","lat":-26.4696,"lng":29.45,"country":"South Africa","population":101919.0},{"id":87,"city":"Upington","lat":-28.46,"lng":21.23,"country":"South Africa","population":71373.0},{"id":88,"city":"Tzaneen","lat":-23.8195,"lng":30.17,"country":"South Africa","population":67245.0},{"id":89,"city":"Vanhynsdorp","lat":-31.6166,"lng":18.7333,"country":"South Africa","population":3331.0},{"id":90,"city":"Kimberley","lat":-28.7468,"lng":24.77,"country":"South Africa","population":165264.0},{"id":91,"city":"Durban","lat":-29.865,"lng":30.98,"country":"South Africa","population":2729000.0},{"id":92,"city":"Klerksdorp","lat":-26.88,"lng":26.62,"country":"South Africa","population":178921.0},{"id":93,"city":"Welkom","lat":-27.97,"lng":26.73,"country":"South Africa","population":431944.0},{"id":94,"city":"De Aar","lat":-30.65,"lng":24.0,"country":"South Africa","population":32318.0},{"id":95,"city":"Prieska","lat":-29.6595,"lng":22.73,"country":"South Africa","population":11236.0},{"id":96,"city":"Saldanha","lat":-33.01,"lng":17.93,"country":"South Africa","population":68284.0},{"id":97,"city":"Middelburg","lat":-31.5,"lng":25.01,"country":"South Africa","population":18164.0},{"id":98,"city":"Port St. Johns","lat":-31.6279,"lng":29.5283,"country":"South Africa","population":5939.0},{"id":99,"city":"Volksrust","lat":-27.3596,"lng":29.89,"country":"South Africa","population":43378.0},{"id":100,"city":"Ulundi","lat":-28.3296,"lng":31.41,"country":"South Africa","population":20753.0},{"id":101,"city":"Beaufort West","lat":-32.3496,"lng":22.57,"country":"South Africa","population":44737.0},{"id":102,"city":"Komatipoort","lat":-25.4096,"lng":31.94,"country":"South Africa","population":20508.0},{"id":104,"city":"Standerton","lat":-26.9395,"lng":29.24,"country":"South Africa","population":74021.0},{"id":105,"city":"Johannesburg","lat":-26.17,"lng":28.03,"country":"South Africa","population":3435000.0},{"id":106,"city":"Kuruman","lat":-27.4496,"lng":23.42,"country":"South Africa","population":10006.0},{"id":107,"city":"Paarl","lat":-33.6996,"lng":18.96,"country":"South Africa","population":187865.0},{"id":108,"city":"Worcester","lat":-33.64,"lng":19.4399,"country":"South Africa","population":127597.0},{"id":109,"city":"Colesberg","lat":-30.7195,"lng":25.1,"country":"South Africa","population":12423.0},{"id":110,"city":"Umtata","lat":-31.58,"lng":28.79,"country":"South Africa","population":137772.0},{"id":111,"city":"Aliwal North","lat":-30.6896,"lng":26.71,"country":"South Africa","population":44436.0},{"id":112,"city":"Middelburg","lat":-25.7596,"lng":29.47,"country":"South Africa","population":154706.0},{"id":113,"city":"Springs","lat":-26.2696,"lng":28.43,"country":"South Africa","population":236083.0},{"id":114,"city":"Benoni","lat":-26.1496,"lng":28.3299,"country":"South Africa","population":2986000.0},{"id":115,"city":"Port Shepstone","lat":-30.7195,"lng":30.46,"country":"South Africa","population":52793.0},{"id":116,"city":"Oudtshoorn","lat":-33.58,"lng":22.19,"country":"South Africa","population":76708.0},{"id":117,"city":"Port Elizabeth","lat":-33.97,"lng":25.6,"country":"South Africa","population":1021000.0},{"id":118,"city":"Port Alfred","lat":-33.5995,"lng":26.88,"country":"South Africa","population":17959.0},{"id":119,"city":"East London","lat":-32.97,"lng":27.87,"country":"South Africa","population":338627.0},{"id":120,"city":"Mossel Bay","lat":-34.17,"lng":22.13,"country":"South Africa","population":16743.0},{"id":121,"city":"Vryburg","lat":-26.96,"lng":24.73,"country":"South Africa","population":49588.0},{"id":122,"city":"Uitenhage","lat":-33.7596,"lng":25.39,"country":"South Africa","population":228912.0},{"id":123,"city":"Bhisho","lat":-32.87,"lng":27.39,"country":"South Africa","population":160997.0},{"id":124,"city":"Knysna","lat":-34.0329,"lng":23.0333,"country":"South Africa","population":63106.0},{"id":125,"city":"Queenstown","lat":-31.8996,"lng":26.88,"country":"South Africa","population":105309.0},{"id":126,"city":"Cradock","lat":-32.1995,"lng":25.61,"country":"South Africa","population":32898.0},{"id":127,"city":"Bredasdorp","lat":-34.5295,"lng":20.03,"country":"South Africa","population":14936.0},{"id":128,"city":"Swellendam","lat":-34.0196,"lng":20.43,"country":"South Africa","population":13674.0},{"id":129,"city":"Ladysmith","lat":-28.5495,"lng":29.78,"country":"South Africa","population":47375.0},{"id":130,"city":"George","lat":-33.95,"lng":22.45,"country":"South Africa","population":174582.0},{"id":131,"city":"Grahamstown","lat":-33.2996,"lng":26.52,"country":"South Africa","population":91548.0},{"id":132,"city":"Mmabatho","lat":-25.83,"lng":25.61,"country":"South Africa","population":104428.0},{"id":134,"city":"Musina","lat":-22.34,"lng":30.03,"country":"South Africa","population":20191.0},{"id":135,"city":"Pretoria","lat":-25.7069,"lng":28.2294,"country":"South Africa","population":1338000.0},{"id":136,"city":"Bloemfontein","lat":-29.12,"lng":26.2299,"country":"South Africa","population":463064.0},{"id":137,"city":"Cape Town","lat":-33.92,"lng":18.435,"country":"South Africa","population":3215000.0},{"id":138,"city":"Zambezi","lat":-13.54,"lng":23.1099,"country":"Zambia","population":7074.0},{"id":139,"city":"Solwezi","lat":-12.1796,"lng":26.4,"country":"Zambia","population":65000.0},{"id":140,"city":"Lusaka","lat":-15.4166,"lng":28.2833,"country":"Zambia","population":1328000.0},{"id":141,"city":"Kaoma","lat":-14.7796,"lng":24.8,"country":"Zambia","population":14212.0},{"id":142,"city":"Chipata","lat":-13.6296,"lng":32.64,"country":"Zambia","population":85963.0},{"id":143,"city":"Senanga","lat":-16.1196,"lng":23.27,"country":"Zambia","population":10005.0},{"id":144,"city":"Sesheke","lat":-17.4695,"lng":24.3,"country":"Zambia","population":20149.0},{"id":145,"city":"Chililabombwe","lat":-12.3696,"lng":27.82,"country":"Zambia","population":82068.0},{"id":146,"city":"Chingola","lat":-12.5396,"lng":27.85,"country":"Zambia","population":182015.0},{"id":147,"city":"Kasempa","lat":-13.4596,"lng":25.82,"country":"Zambia","population":5622.0},{"id":148,"city":"Kitwe","lat":-12.81,"lng":28.22,"country":"Zambia","population":404901.0},{"id":149,"city":"Mufulira","lat":-12.55,"lng":28.26,"country":"Zambia","population":153624.0},{"id":150,"city":"Nchelenge","lat":-9.3496,"lng":28.73,"country":"Zambia","population":23693.0},{"id":151,"city":"Mazabuka","lat":-15.86,"lng":27.76,"country":"Zambia","population":64006.0},{"id":152,"city":"Lukulu","lat":-14.3896,"lng":23.24,"country":"Zambia","population":3349.0},{"id":153,"city":"Kafue","lat":-15.78,"lng":28.18,"country":"Zambia","population":47554.0},{"id":154,"city":"Lundazi","lat":-12.2895,"lng":33.17,"country":"Zambia","population":11635.0},{"id":155,"city":"Mansa","lat":-11.2,"lng":28.89,"country":"Zambia","population":42277.0},{"id":156,"city":"Mwinilunga","lat":-11.7396,"lng":24.44,"country":"Zambia","population":13798.0},{"id":157,"city":"Mumbwa","lat":-14.9796,"lng":27.07,"country":"Zambia","population":19086.0},{"id":158,"city":"Kalabo","lat":-14.9896,"lng":22.68,"country":"Zambia","population":7731.0},{"id":159,"city":"Nyimba","lat":-14.5495,"lng":30.81,"country":"Zambia","population":1336.0},{"id":160,"city":"Kapiri Mposhi","lat":-13.9696,"lng":28.66,"country":"Zambia","population":37942.0},{"id":161,"city":"Kabwe","lat":-14.44,"lng":28.45,"country":"Zambia","population":188979.0},{"id":162,"city":"Ndola","lat":-12.9999,"lng":28.65,"country":"Zambia","population":396339.0},{"id":163,"city":"Kasama","lat":-10.1996,"lng":31.1799,"country":"Zambia","population":200000.0},{"id":164,"city":"Mbala","lat":-8.84,"lng":31.37,"country":"Zambia","population":20570.0},{"id":165,"city":"Kawambwa","lat":-9.7795,"lng":29.08,"country":"Zambia","population":20589.0},{"id":166,"city":"Luanshya","lat":-13.1333,"lng":28.4,"country":"Zambia","population":151993.0},{"id":167,"city":"Mongu","lat":-15.2796,"lng":23.12,"country":"Zambia","population":52534.0},{"id":168,"city":"Mpika","lat":-11.83,"lng":31.46,"country":"Zambia","population":28445.0},{"id":169,"city":"Chinsali","lat":-10.5496,"lng":32.06,"country":"Zambia","population":14015.0},{"id":170,"city":"Livingstone","lat":-17.86,"lng":25.86,"country":"Zambia","population":165480.0},{"id":171,"city":"Choma","lat":-16.8095,"lng":26.97,"country":"Zambia","population":46746.0},{"id":172,"city":"Plumtree","lat":-20.4795,"lng":27.82,"country":"Zimbabwe","population":2148.0},{"id":173,"city":"Kariba","lat":-16.5296,"lng":28.8,"country":"Zimbabwe","population":25531.0},{"id":174,"city":"Hwange","lat":-18.37,"lng":26.5,"country":"Zimbabwe","population":33989.0},{"id":175,"city":"Chiredzi","lat":-21.0496,"lng":31.66,"country":"Zimbabwe","population":28205.0},{"id":176,"city":"Mazowe","lat":-17.5196,"lng":30.97,"country":"Zimbabwe","population":9966.0},{"id":177,"city":"Zvishavane","lat":-20.3296,"lng":30.05,"country":"Zimbabwe","population":35896.0},{"id":178,"city":"Shamva","lat":-17.3196,"lng":31.57,"country":"Zimbabwe","population":10317.0},{"id":179,"city":"Harare","lat":-17.8178,"lng":31.0447,"country":"Zimbabwe","population":1572000.0},{"id":180,"city":"Kwekwe","lat":-18.9296,"lng":29.8,"country":"Zimbabwe","population":99149.0},{"id":181,"city":"Kadoma","lat":-18.33,"lng":29.9099,"country":"Zimbabwe","population":79174.0},{"id":182,"city":"Beitbridge","lat":-22.2096,"lng":29.99,"country":"Zimbabwe","population":26459.0},{"id":183,"city":"Karoi","lat":-16.8196,"lng":29.68,"country":"Zimbabwe","population":25030.0},{"id":184,"city":"Victoria Falls","lat":-17.9296,"lng":25.84,"country":"Zimbabwe","population":35761.0},{"id":185,"city":"Chitungwiza","lat":-18.0,"lng":31.1,"country":"Zimbabwe","population":340360.0},{"id":189,"city":"Masvingo","lat":-20.0596,"lng":30.82,"country":"Zimbabwe","population":76311.0},{"id":190,"city":"Mutare","lat":-18.97,"lng":32.65,"country":"Zimbabwe","population":249365.0},{"id":191,"city":"Bulawayo","lat":-20.17,"lng":28.58,"country":"Zimbabwe","population":699385.0},{"id":192,"city":"Chinhoyi","lat":-17.3596,"lng":30.18,"country":"Zimbabwe","population":61739.0},{"id":193,"city":"Gwanda","lat":-20.9396,"lng":29.01,"country":"Zimbabwe","population":14450.0},{"id":194,"city":"Gweru","lat":-19.45,"lng":29.82,"country":"Zimbabwe","population":183358.0},{"id":195,"city":"Maqat","lat":47.6482,"lng":53.3265,"country":"Kazakhstan","population":14082.0},{"id":196,"city":"Zhangaozen","lat":43.3004,"lng":52.8,"country":"Kazakhstan","population":8895.0},{"id":197,"city":"Taraz","lat":42.9,"lng":71.365,"country":"Kazakhstan","population":358153.0},{"id":198,"city":"Oral","lat":51.2711,"lng":51.335,"country":"Kazakhstan","population":209788.0},{"id":199,"city":"Balqash","lat":46.8532,"lng":74.9502,"country":"Kazakhstan","population":81364.0},{"id":200,"city":"Zaysan","lat":47.4752,"lng":84.8598,"country":"Kazakhstan","population":17600.0},{"id":201,"city":"Oytal","lat":42.9153,"lng":73.2549,"country":"Kazakhstan","population":22673.0},{"id":202,"city":"Zholymbet","lat":51.7502,"lng":71.7099,"country":"Kazakhstan","population":6876.0},{"id":203,"city":"Serebryansk","lat":49.6999,"lng":83.4249,"country":"Kazakhstan","population":701.0},{"id":204,"city":"Chapaev","lat":50.1915,"lng":51.1449,"country":"Kazakhstan","population":6000.0},{"id":205,"city":"Ridder","lat":50.3554,"lng":83.5149,"country":"Kazakhstan","population":56756.0},{"id":206,"city":"Zhaltyr","lat":51.6324,"lng":69.8328,"country":"Kazakhstan","population":694.0},{"id":207,"city":"Atbasar","lat":51.8219,"lng":68.3477,"country":"Kazakhstan","population":35819.0},{"id":208,"city":"Aqsay","lat":51.1714,"lng":53.0349,"country":"Kazakhstan","population":34799.0},{"id":209,"city":"Shemonaikha","lat":50.6316,"lng":81.905,"country":"Kazakhstan","population":27176.0},{"id":210,"city":"Atasu","lat":48.6903,"lng":71.6499,"country":"Kazakhstan","population":19616.0},{"id":211,"city":"Rudny","lat":52.9527,"lng":63.13,"country":"Kazakhstan","population":124000.0},{"id":212,"city":"Makhambet","lat":47.6714,"lng":51.5798,"country":"Kazakhstan","population":8905.0},{"id":213,"city":"Fort Shevchenko","lat":44.5171,"lng":50.2666,"country":"Kazakhstan","population":5213.0},{"id":214,"city":"Qusmuryn","lat":52.458,"lng":64.6,"country":"Kazakhstan","population":8049.0},{"id":215,"city":"Oktyabrsk","lat":49.4731,"lng":57.4449,"country":"Kazakhstan","population":28196.0},{"id":216,"city":"Khromtau","lat":50.2699,"lng":58.45,"country":"Kazakhstan","population":23715.0},{"id":217,"city":"Algha","lat":49.9032,"lng":57.335,"country":"Kazakhstan","population":28267.0},{"id":218,"city":"Embi","lat":48.8268,"lng":58.1442,"country":"Kazakhstan","population":18760.0},{"id":219,"city":"Ushtobe","lat":45.2653,"lng":77.97,"country":"Kazakhstan","population":20492.0},{"id":220,"city":"Burylbaytal","lat":44.9387,"lng":74.0303,"country":"Kazakhstan","population":100.0},{"id":221,"city":"Zhanibek","lat":49.4276,"lng":46.8772,"country":"Kazakhstan","population":8212.0},{"id":222,"city":"Esil","lat":51.957,"lng":66.3775,"country":"Kazakhstan","population":13504.0},{"id":223,"city":"Derzhavinsk","lat":51.1021,"lng":66.3075,"country":"Kazakhstan","population":15848.0},{"id":224,"city":"Saryshaghan","lat":46.1195,"lng":73.6191,"country":"Kazakhstan","population":4365.0},{"id":225,"city":"Turgay","lat":49.626,"lng":63.499,"country":"Kazakhstan","population":5277.0},{"id":226,"city":"Sarqan","lat":45.4203,"lng":79.9149,"country":"Kazakhstan","population":76919.0},{"id":227,"city":"Arqalyq","lat":50.2418,"lng":66.8976,"country":"Kazakhstan","population":55521.0},{"id":228,"city":"Shalqar","lat":47.8363,"lng":59.6141,"country":"Kazakhstan","population":27256.0},{"id":229,"city":"Shieli","lat":44.167,"lng":66.75,"country":"Kazakhstan","population":29832.0},{"id":230,"city":"Bayghanin","lat":48.6917,"lng":55.874,"country":"Kazakhstan","population":7657.0},{"id":231,"city":"Zhezqazghan","lat":47.78,"lng":67.77,"country":"Kazakhstan","population":104357.0},{"id":232,"city":"Mangyshlak","lat":43.6905,"lng":51.1417,"country":"Kazakhstan","population":147443.0},{"id":233,"city":"Zhosaly","lat":45.4877,"lng":64.078,"country":"Kazakhstan","population":20065.0},{"id":234,"city":"Beyneu","lat":45.1834,"lng":55.1,"country":"Kazakhstan","population":32452.0},{"id":235,"city":"Qazaly","lat":45.7628,"lng":62.1075,"country":"Kazakhstan","population":6582.0},{"id":236,"city":"Aral","lat":46.8,"lng":61.6666,"country":"Kazakhstan","population":33017.0},{"id":237,"city":"Ayakoz","lat":47.9647,"lng":80.4297,"country":"Kazakhstan","population":45861.0},{"id":238,"city":"Urzhar","lat":47.1002,"lng":81.6048,"country":"Kazakhstan","population":14826.0},{"id":239,"city":"Qapshaghay","lat":43.8844,"lng":77.0687,"country":"Kazakhstan","population":42167.0},{"id":240,"city":"Esik","lat":43.3691,"lng":77.4438,"country":"Kazakhstan","population":35319.0},{"id":241,"city":"Qaratau","lat":43.1854,"lng":70.46,"country":"Kazakhstan","population":37881.0},{"id":242,"city":"Sharbaqty","lat":52.4999,"lng":78.1499,"country":"Kazakhstan","population":107.0},{"id":243,"city":"Oostanay","lat":53.2209,"lng":63.6283,"country":"Kazakhstan","population":236901.0},{"id":244,"city":"Kachiry","lat":53.0804,"lng":76.09,"country":"Kazakhstan","population":8931.0},{"id":245,"city":"Kishkenekol","lat":53.6368,"lng":72.3414,"country":"Kazakhstan","population":6779.0},{"id":246,"city":"Bulaevo","lat":54.9053,"lng":70.44,"country":"Kazakhstan","population":9886.0},{"id":247,"city":"Shonzhy","lat":43.5421,"lng":79.4703,"country":"Kazakhstan","population":3902.0},{"id":248,"city":"Qyzylorda","lat":44.8,"lng":65.465,"country":"Kazakhstan","population":300000.0},{"id":249,"city":"Qaraghandy","lat":49.885,"lng":73.115,"country":"Kazakhstan","population":451800.0},{"id":250,"city":"Ertis","lat":53.3453,"lng":75.4499,"country":"Kazakhstan","population":9216.0},{"id":251,"city":"Tayynsha","lat":53.8481,"lng":69.7638,"country":"Kazakhstan","population":13148.0},{"id":252,"city":"Qulan","lat":42.9204,"lng":72.705,"country":"Kazakhstan","population":13128.0},{"id":253,"city":"Shu","lat":43.5953,"lng":73.7448,"country":"Kazakhstan","population":42439.0},{"id":254,"city":"Kentau","lat":43.5165,"lng":68.5199,"country":"Kazakhstan","population":57408.0},{"id":255,"city":"Oskemen","lat":49.99,"lng":82.6149,"country":"Kazakhstan","population":319067.0},{"id":256,"city":"Aqtau","lat":43.6232,"lng":51.2365,"country":"Kazakhstan","population":4479.0},{"id":257,"city":"Taldyqorghan","lat":45.0,"lng":78.4,"country":"Kazakhstan","population":88380.0},{"id":258,"city":"Astana","lat":51.1811,"lng":71.4278,"country":"Kazakhstan","population":345604.0},{"id":259,"city":"Aqtobe","lat":50.28,"lng":57.17,"country":"Kazakhstan","population":262457.0},{"id":260,"city":"Kokshetau","lat":53.3,"lng":69.42,"country":"Kazakhstan","population":128873.0},{"id":261,"city":"Petropavlovsk","lat":54.88,"lng":69.22,"country":"Kazakhstan","population":228238.0},{"id":262,"city":"Pavlodar","lat":52.3,"lng":76.95,"country":"Kazakhstan","population":329002.0},{"id":263,"city":"Otar","lat":43.5346,"lng":75.2139,"country":"Kazakhstan","population":11238.0},{"id":264,"city":"Almaty","lat":43.325,"lng":76.915,"country":"Kazakhstan","population":1209000.0},{"id":265,"city":"Bestobe","lat":52.4997,"lng":73.0997,"country":"Kazakhstan","population":7189.0},{"id":266,"city":"Arys","lat":42.4369,"lng":68.8048,"country":"Kazakhstan","population":42648.0},{"id":267,"city":"Lenger","lat":42.1899,"lng":69.8799,"country":"Kazakhstan","population":23058.0},{"id":268,"city":"Aqsu","lat":52.4502,"lng":71.9597,"country":"Kazakhstan","population":8543.0},{"id":269,"city":"Temirtau","lat":50.065,"lng":72.965,"country":"Kazakhstan","population":170600.0},{"id":270,"city":"Makinsk","lat":52.6404,"lng":70.41,"country":"Kazakhstan","population":23020.0},{"id":271,"city":"Osakarovka","lat":50.5799,"lng":72.5699,"country":"Kazakhstan","population":7305.0},{"id":272,"city":"Qarqaraly","lat":49.4249,"lng":75.4649,"country":"Kazakhstan","population":8195.0},{"id":273,"city":"Ekibastuz","lat":51.73,"lng":75.3199,"country":"Kazakhstan","population":127868.0},{"id":274,"city":"Zyryanovsk","lat":49.7453,"lng":84.2548,"country":"Kazakhstan","population":49658.0},{"id":275,"city":"Komsomolets","lat":53.7506,"lng":62.0502,"country":"Kazakhstan","population":9838.0},{"id":276,"city":"Baykonur","lat":45.6914,"lng":63.2413,"country":"Kazakhstan","population":36175.0},{"id":277,"city":"Erymentau","lat":51.6303,"lng":73.1049,"country":"Kazakhstan","population":25141.0},{"id":278,"city":"Qarazhal","lat":48.0253,"lng":70.7999,"country":"Kazakhstan","population":22170.0},{"id":279,"city":"Tobol","lat":52.698,"lng":62.5749,"country":"Kazakhstan","population":7155.0},{"id":280,"city":"Shar","lat":49.6003,"lng":81.0549,"country":"Kazakhstan","population":9087.0},{"id":281,"city":"Semey","lat":50.435,"lng":80.275,"country":"Kazakhstan","population":311353.0},{"id":282,"city":"Boralday","lat":43.3341,"lng":76.8288,"country":"Kazakhstan","population":20996.0},{"id":283,"city":"Zhetiqara","lat":52.193,"lng":61.2399,"country":"Kazakhstan","population":46740.0},{"id":284,"city":"Aqadyr","lat":48.2749,"lng":72.8599,"country":"Kazakhstan","population":9710.0},{"id":285,"city":"Zharkent","lat":44.1616,"lng":79.9801,"country":"Kazakhstan","population":36496.0},{"id":286,"city":"Qulsary","lat":46.9833,"lng":54.0165,"country":"Kazakhstan","population":37103.0},{"id":287,"city":"Balyqshy","lat":47.0666,"lng":51.8666,"country":"Kazakhstan","population":31624.0},{"id":288,"city":"Atyrau","lat":47.1127,"lng":51.92,"country":"Kazakhstan","population":182753.0},{"id":289,"city":"Shymkent","lat":42.32,"lng":69.595,"country":"Kazakhstan","population":465392.0},{"id":290,"city":"Turkistan","lat":43.3016,"lng":68.2549,"country":"Kazakhstan","population":97360.0},{"id":291,"city":"Xiangkhoang","lat":19.3337,"lng":103.3666,"country":"Laos","population":5189.0},{"id":293,"city":"Vientiane","lat":17.9667,"lng":102.6,"country":"Laos","population":754000.0},{"id":294,"city":"Ban Houayxay","lat":20.2775,"lng":100.4128,"country":"Laos","population":6347.0},{"id":296,"city":"Louang Namtha","lat":20.95,"lng":101.4167,"country":"Laos","population":3225.0},{"id":297,"city":"Phongsali","lat":21.6833,"lng":102.1,"country":"Laos","population":6000.0},{"id":298,"city":"Thakhek","lat":17.4112,"lng":104.8361,"country":"Laos","population":76928.0},{"id":300,"city":"Louangphrabang","lat":19.8845,"lng":102.1416,"country":"Laos","population":107142.0},{"id":301,"city":"Xaignabouri","lat":19.2505,"lng":101.7501,"country":"Laos","population":16200.0},{"id":302,"city":"Savannakhet","lat":16.5376,"lng":104.773,"country":"Laos","population":84898.0},{"id":304,"city":"Pakxe","lat":15.1221,"lng":105.8183,"country":"Laos","population":102775.0},{"id":305,"city":"Attapu","lat":14.808,"lng":106.839,"country":"Laos","population":4297.0},{"id":306,"city":"Xam Nua","lat":20.4167,"lng":104.0333,"country":"Laos","population":38992.0},{"id":308,"city":"Saravan","lat":15.716,"lng":106.427,"country":"Laos","population":5521.0},{"id":309,"city":"Champasak","lat":14.8833,"lng":105.8667,"country":"Laos","population":12994.0},{"id":310,"city":"Beirut","lat":33.872,"lng":35.5097,"country":"Lebanon","population":1846000.0},{"id":311,"city":"Zahl\u00e9","lat":33.8501,"lng":35.9042,"country":"Lebanon","population":78145.0},{"id":313,"city":"B'abda","lat":33.8333,"lng":35.5333,"country":"Lebanon","population":9000.0},{"id":315,"city":"Saida","lat":33.563,"lng":35.3688,"country":"Lebanon","population":173894.0},{"id":316,"city":"Nabatiye et Tahta","lat":33.3833,"lng":35.45,"country":"Lebanon","population":80000.0},{"id":317,"city":"Trablous","lat":34.42,"lng":35.87,"country":"Lebanon","population":530000.0},{"id":318,"city":"Castries","lat":14.002,"lng":-61.0,"country":"Saint Lucia","population":37963.0},{"id":327,"city":"Vaduz","lat":47.1337,"lng":9.5167,"country":"Liechtenstein","population":36281.0},{"id":330,"city":"Colombo","lat":6.932,"lng":79.8578,"country":"Sri Lanka","population":217000.0},{"id":331,"city":"Ratnapura","lat":6.693,"lng":80.386,"country":"Sri Lanka","population":47832.0},{"id":332,"city":"Matara","lat":5.949,"lng":80.5428,"country":"Sri Lanka","population":68244.0},{"id":333,"city":"Sri Jawewardenepura Kotte","lat":6.9,"lng":79.95,"country":"Sri Lanka","population":115826.0},{"id":334,"city":"Moratuwa","lat":6.7804,"lng":79.88,"country":"Sri Lanka","population":200000.0},{"id":335,"city":"Anuradhapura","lat":8.35,"lng":80.3833,"country":"Sri Lanka","population":118302.0},{"id":336,"city":"Galle","lat":6.03,"lng":80.24,"country":"Sri Lanka","population":99478.0},{"id":337,"city":"Puttalan","lat":8.033,"lng":79.826,"country":"Sri Lanka","population":45661.0},{"id":338,"city":"Kandy","lat":7.28,"lng":80.67,"country":"Sri Lanka","population":111701.0},{"id":339,"city":"Badulla","lat":6.9837,"lng":81.0499,"country":"Sri Lanka","population":47587.0},{"id":340,"city":"Trincomalee","lat":8.569,"lng":81.233,"country":"Sri Lanka","population":108420.0},{"id":341,"city":"Kilinochchi","lat":9.4004,"lng":80.3999,"country":"Sri Lanka","population":103717.0},{"id":342,"city":"Batticaloa","lat":7.717,"lng":81.7,"country":"Sri Lanka","population":129222.0},{"id":343,"city":"Jaffna","lat":9.675,"lng":80.005,"country":"Sri Lanka","population":250000.0},{"id":345,"city":"Voinjama","lat":8.4167,"lng":-9.75,"country":"Liberia","population":26594.0},{"id":346,"city":"Robertsport","lat":6.7533,"lng":-11.3686,"country":"Liberia","population":11969.0},{"id":347,"city":"Buchanan","lat":5.9161,"lng":-10.0525,"country":"Liberia","population":48315.0},{"id":348,"city":"Monrovia","lat":6.3106,"lng":-10.8048,"country":"Liberia","population":1041000.0},{"id":351,"city":"Zwedru","lat":6.0704,"lng":-8.13,"country":"Liberia","population":25678.0},{"id":352,"city":"Barclayville","lat":4.8,"lng":-8.1667,"country":"Liberia","population":2733.0},{"id":353,"city":"Rivercess","lat":5.465,"lng":-9.578,"country":"Liberia","population":2578.0},{"id":355,"city":"Gbarnga","lat":7.0104,"lng":-9.49,"country":"Liberia","population":45835.0},{"id":356,"city":"Kakata","lat":6.526,"lng":-10.349,"country":"Liberia","population":33945.0},{"id":357,"city":"Sanniquellie","lat":7.371,"lng":-8.685,"country":"Liberia","population":11415.0},{"id":358,"city":"Greenville","lat":5.0111,"lng":-9.0388,"country":"Liberia","population":10374.0},{"id":359,"city":"Bensonville","lat":6.4333,"lng":-10.6,"country":"Liberia","population":4089.0},{"id":360,"city":"Harper","lat":4.3754,"lng":-7.717,"country":"Liberia","population":32661.0},{"id":361,"city":"Maseru","lat":-29.3167,"lng":27.4833,"country":"Lesotho","population":361324.0},{"id":362,"city":"Mokhotlong","lat":-29.291,"lng":29.078,"country":"Lesotho","population":8809.0},{"id":364,"city":"Moyeni","lat":-30.411,"lng":27.716,"country":"Lesotho","population":24130.0},{"id":366,"city":"Mafetang","lat":-29.8166,"lng":27.25,"country":"Lesotho","population":57059.0},{"id":367,"city":"Hlotse","lat":-28.878,"lng":28.056,"country":"Lesotho","population":47675.0},{"id":368,"city":"Teyateyaneng","lat":-29.153,"lng":27.753,"country":"Lesotho","population":5115.0},{"id":369,"city":"Mohales Hoek","lat":-30.159,"lng":27.48,"country":"Lesotho","population":24992.0},{"id":370,"city":"Butha-Buthe","lat":-28.75,"lng":28.25,"country":"Lesotho","population":16330.0},{"id":371,"city":"Klaip\u0117da","lat":55.7204,"lng":21.1199,"country":"Lithuania","population":192307.0},{"id":388,"city":"Vilnius","lat":54.6834,"lng":25.3166,"country":"Lithuania","population":542366.0},{"id":399,"city":"\u0160iauliai","lat":55.9386,"lng":23.325,"country":"Lithuania","population":133528.0},{"id":406,"city":"Kaunas","lat":54.9504,"lng":23.88,"country":"Lithuania","population":374643.0},{"id":409,"city":"Paneve\u017eys","lat":55.74,"lng":24.37,"country":"Lithuania","population":127405.0},{"id":434,"city":"Diekirch","lat":49.8833,"lng":6.1667,"country":"Luxembourg","population":6242.0},{"id":435,"city":"Grevenmacher","lat":49.7,"lng":6.3333,"country":"Luxembourg","population":3958.0},{"id":436,"city":"Luxembourg","lat":49.6117,"lng":6.13,"country":"Luxembourg","population":107260.0},{"id":438,"city":"Daugavpils","lat":55.88,"lng":26.51,"country":"Latvia","population":111564.0},{"id":441,"city":"Ventspils","lat":57.3899,"lng":21.5606,"country":"Latvia","population":42884.0},{"id":467,"city":"Riga","lat":56.95,"lng":24.1,"country":"Latvia","population":742572.0},{"id":513,"city":"Liepaga","lat":56.51,"lng":21.01,"country":"Latvia","population":85132.0},{"id":540,"city":"Jelgava","lat":56.6527,"lng":23.7128,"country":"Latvia","population":67207.0},{"id":547,"city":"R\u0113zekne","lat":56.5,"lng":27.3166,"country":"Latvia","population":38340.0},{"id":550,"city":"Tripoli","lat":32.8925,"lng":13.18,"country":"Libya","population":2189000.0},{"id":552,"city":"Zuwarah","lat":32.9344,"lng":12.0791,"country":"Libya","population":180310.0},{"id":553,"city":"Al Khums","lat":32.6604,"lng":14.26,"country":"Libya","population":201943.0},{"id":554,"city":"As Sidr","lat":30.6704,"lng":18.2666,"country":"Libya","population":50.0},{"id":555,"city":"Ghadamis","lat":30.1333,"lng":9.5,"country":"Libya","population":6623.0},{"id":556,"city":"Dirj","lat":30.1679,"lng":10.4567,"country":"Libya","population":931.0},{"id":557,"city":"Nalut","lat":31.8804,"lng":10.97,"country":"Libya","population":66609.0},{"id":558,"city":"Umm al Abid","lat":27.517,"lng":15.0333,"country":"Libya","population":300.0},{"id":559,"city":"Sabha","lat":27.0333,"lng":14.4333,"country":"Libya","population":100249.0},{"id":560,"city":"Birak","lat":27.5333,"lng":14.2834,"country":"Libya","population":45421.0},{"id":562,"city":"Zillah","lat":28.5504,"lng":17.5834,"country":"Libya","population":10.0},{"id":563,"city":"Hun","lat":29.1167,"lng":15.9333,"country":"Libya","population":18878.0},{"id":564,"city":"Az Zawiyah","lat":32.7604,"lng":12.72,"country":"Libya","population":200000.0},{"id":565,"city":"Awjilah","lat":29.108,"lng":21.2869,"country":"Libya","population":6610.0},{"id":566,"city":"El Agheila","lat":30.257,"lng":19.2,"country":"Libya","population":100.0},{"id":567,"city":"Maradah","lat":29.2337,"lng":19.2166,"country":"Libya","population":2500.0},{"id":568,"city":"Ajdabiya","lat":30.77,"lng":20.22,"country":"Libya","population":143833.0},{"id":569,"city":"Darnah","lat":32.7648,"lng":22.6391,"country":"Libya","population":127974.0},{"id":570,"city":"Al Jaghbub","lat":29.7504,"lng":24.5166,"country":"Libya","population":1744.0},{"id":571,"city":"Mizdah","lat":31.4337,"lng":12.9833,"country":"Libya","population":26107.0},{"id":572,"city":"Gharyan","lat":32.1704,"lng":13.02,"country":"Libya","population":146810.0},{"id":573,"city":"Tubruq","lat":32.08,"lng":23.96,"country":"Libya","population":263527.0},{"id":574,"city":"Shahhat","lat":32.8281,"lng":21.8622,"country":"Libya","population":45000.0},{"id":575,"city":"Tajarhi","lat":24.3704,"lng":14.4708,"country":"Libya","population":1500.0},{"id":576,"city":"Al Bayda","lat":32.7604,"lng":21.62,"country":"Libya","population":1794.0},{"id":577,"city":"Ghat","lat":24.9647,"lng":10.1728,"country":"Libya","population":24347.0},{"id":578,"city":"Tmassah","lat":26.3666,"lng":15.8,"country":"Libya","population":500.0},{"id":579,"city":"Marzuq","lat":25.9044,"lng":13.8972,"country":"Libya","population":55071.0},{"id":580,"city":"Al Marj","lat":32.5005,"lng":20.83,"country":"Libya","population":169540.0},{"id":581,"city":"Surt","lat":31.21,"lng":16.59,"country":"Libya","population":128123.0},{"id":582,"city":"Bani Walid","lat":31.7704,"lng":13.99,"country":"Libya","population":65392.0},{"id":584,"city":"Al Jawf","lat":24.2,"lng":23.29,"country":"Libya","population":24132.0},{"id":586,"city":"Qaminis","lat":31.6606,"lng":20.0155,"country":"Libya","population":5348.0},{"id":587,"city":"Banghazi","lat":32.1167,"lng":20.0667,"country":"Libya","population":1180000.0},{"id":588,"city":"Misratah","lat":32.38,"lng":15.1,"country":"Libya","population":386120.0},{"id":589,"city":"Kenitra","lat":34.2704,"lng":-6.58,"country":"Morocco","population":551786.0},{"id":590,"city":"Goulimine","lat":28.98,"lng":-10.07,"country":"Morocco","population":115267.0},{"id":591,"city":"Fez","lat":34.0546,"lng":-5.0004,"country":"Morocco","population":1002000.0},{"id":592,"city":"Casablanca","lat":33.6,"lng":-7.6164,"country":"Morocco","population":3181000.0},{"id":593,"city":"Agadir","lat":30.44,"lng":-9.62,"country":"Morocco","population":825467.0},{"id":595,"city":"Tangier","lat":35.7473,"lng":-5.8327,"country":"Morocco","population":750060.0},{"id":596,"city":"Settat","lat":33.0104,"lng":-7.62,"country":"Morocco","population":161748.0},{"id":597,"city":"Oujda","lat":34.69,"lng":-1.91,"country":"Morocco","population":409391.0},{"id":598,"city":"Meknes","lat":33.9004,"lng":-5.56,"country":"Morocco","population":697628.0},{"id":599,"city":"Rabat","lat":34.0253,"lng":-6.8361,"country":"Morocco","population":1705000.0},{"id":600,"city":"Marrakesh","lat":31.63,"lng":-8.0,"country":"Morocco","population":872000.0},{"id":601,"city":"El Jadida","lat":33.2604,"lng":-8.51,"country":"Morocco","population":180470.0},{"id":602,"city":"Er Rachidia","lat":31.9404,"lng":-4.45,"country":"Morocco","population":228489.0},{"id":603,"city":"Tan Tan","lat":28.4304,"lng":-11.1,"country":"Morocco","population":64868.0},{"id":604,"city":"Taza","lat":34.2204,"lng":-4.02,"country":"Morocco","population":199633.0},{"id":605,"city":"Larache","lat":35.2004,"lng":-6.16,"country":"Morocco","population":120082.0},{"id":606,"city":"Ksar El Kebir","lat":35.0204,"lng":-5.91,"country":"Morocco","population":306600.0},{"id":607,"city":"Safi","lat":32.32,"lng":-9.24,"country":"Morocco","population":353476.0},{"id":608,"city":"Tiznit","lat":29.7104,"lng":-9.74,"country":"Morocco","population":57705.0},{"id":609,"city":"Ouezzane","lat":34.8103,"lng":-5.57,"country":"Morocco","population":69658.0},{"id":610,"city":"Monaco","lat":43.7396,"lng":7.4069,"country":"Monaco","population":36371.0},{"id":631,"city":"B\u0103l\u021bi","lat":47.7591,"lng":27.9053,"country":"Moldova","population":151355.0},{"id":635,"city":"Cahul","lat":45.9079,"lng":28.1944,"country":"Moldova","population":63407.0},{"id":636,"city":"Chi\u0219in\u0103u","lat":47.005,"lng":28.8577,"country":"Moldova","population":688134.0},{"id":638,"city":"Tiraspol","lat":46.8531,"lng":29.64,"country":"Moldova","population":157000.0},{"id":641,"city":"Dub\u0103sari","lat":47.2631,"lng":29.1608,"country":"Moldova","population":23254.0},{"id":655,"city":"Podgorica","lat":42.466,"lng":19.2663,"country":"Montenegro","population":145850.0},{"id":673,"city":"Antananarivo","lat":-18.9166,"lng":47.5166,"country":"Madagascar","population":1697000.0},{"id":674,"city":"Toamasina","lat":-18.1818,"lng":49.405,"country":"Madagascar","population":210226.0},{"id":675,"city":"Antalaha","lat":-14.8833,"lng":50.2833,"country":"Madagascar","population":47224.0},{"id":676,"city":"Maroantsetra","lat":-15.4333,"lng":49.7333,"country":"Madagascar","population":38046.0},{"id":677,"city":"Mandritsara","lat":-15.8328,"lng":48.8166,"country":"Madagascar","population":9705.0},{"id":678,"city":"Besalampy","lat":-16.7495,"lng":44.4833,"country":"Madagascar","population":1022.0},{"id":679,"city":"Marovoay","lat":-16.0995,"lng":46.6333,"country":"Madagascar","population":31253.0},{"id":680,"city":"Andoany","lat":-13.4,"lng":48.2666,"country":"Madagascar","population":22680.0},{"id":681,"city":"Mahajanga","lat":-15.67,"lng":46.345,"country":"Madagascar","population":154657.0},{"id":682,"city":"Ambanja","lat":-13.6829,"lng":48.45,"country":"Madagascar","population":30621.0},{"id":683,"city":"Antsiranana","lat":-12.2765,"lng":49.3115,"country":"Madagascar","population":82937.0},{"id":684,"city":"Miandrivazo","lat":-19.5162,"lng":45.4666,"country":"Madagascar","population":20631.0},{"id":685,"city":"Mananjary","lat":-21.2167,"lng":48.3333,"country":"Madagascar","population":27686.0},{"id":686,"city":"Morombe","lat":-21.7391,"lng":43.3657,"country":"Madagascar","population":16727.0},{"id":687,"city":"Toliara","lat":-23.3568,"lng":43.69,"country":"Madagascar","population":115319.0},{"id":688,"city":"Manja","lat":-21.4329,"lng":44.3333,"country":"Madagascar","population":1536.0},{"id":689,"city":"Fianarantsoa","lat":-21.4333,"lng":47.0833,"country":"Madagascar","population":184184.0},{"id":690,"city":"Androka","lat":-25.0219,"lng":44.0749,"country":"Madagascar","population":174.0},{"id":691,"city":"Bekiy","lat":-24.2162,"lng":45.3166,"country":"Madagascar","population":4286.0},{"id":692,"city":"Antsirabe","lat":-19.85,"lng":47.0333,"country":"Madagascar","population":307921.0},{"id":693,"city":"Antsohihy","lat":-14.8661,"lng":47.9834,"country":"Madagascar","population":21290.0},{"id":694,"city":"Maintirano","lat":-18.0666,"lng":44.0167,"country":"Madagascar","population":5925.0},{"id":695,"city":"Ambatondrazaka","lat":-17.8329,"lng":48.4167,"country":"Madagascar","population":43134.0},{"id":696,"city":"Farafangana","lat":-22.8166,"lng":47.8332,"country":"Madagascar","population":24764.0},{"id":697,"city":"Ihosy","lat":-22.3996,"lng":46.1167,"country":"Madagascar","population":16990.0},{"id":698,"city":"Morondava","lat":-20.2833,"lng":44.2833,"country":"Madagascar","population":36803.0},{"id":699,"city":"T\u00f4lanaro","lat":-25.0268,"lng":46.99,"country":"Madagascar","population":16818.0},{"id":700,"city":"Sambava","lat":-14.2662,"lng":50.1666,"country":"Madagascar","population":43465.0},{"id":701,"city":"Majuro","lat":7.103,"lng":171.38,"country":"Marshall Islands","population":25400.0},{"id":733,"city":"Skopje","lat":42.0,"lng":21.4335,"country":"Macedonia","population":494087.0},{"id":740,"city":"Bitola","lat":41.0391,"lng":21.3395,"country":"Macedonia","population":86528.0},{"id":762,"city":"Tetovo","lat":42.0092,"lng":20.9701,"country":"Macedonia","population":119132.0},{"id":773,"city":"Aguelhok","lat":19.4549,"lng":0.8564,"country":"Mali","population":9000.0},{"id":774,"city":"Bamako","lat":12.65,"lng":-8.0,"country":"Mali","population":1494000.0},{"id":776,"city":"Bourem","lat":16.9004,"lng":-0.35,"country":"Mali","population":30000.0},{"id":777,"city":"Mopti","lat":14.49,"lng":-4.18,"country":"Mali","population":108456.0},{"id":778,"city":"Gao","lat":16.2666,"lng":-0.05,"country":"Mali","population":116967.0},{"id":779,"city":"Satadougou","lat":12.617,"lng":-11.4066,"country":"Mali","population":706.0},{"id":780,"city":"Koulikoro","lat":12.8833,"lng":-7.55,"country":"Mali","population":23919.0},{"id":781,"city":"Sikasso","lat":11.3204,"lng":-5.68,"country":"Mali","population":225753.0},{"id":782,"city":"Araouane","lat":18.9,"lng":-3.53,"country":"Mali","population":4026.0},{"id":783,"city":"S\u00e9gou","lat":13.44,"lng":-6.26,"country":"Mali","population":122952.0},{"id":784,"city":"Timbuktu","lat":16.7666,"lng":-3.0166,"country":"Mali","population":68872.0},{"id":785,"city":"Markala","lat":13.6704,"lng":-6.07,"country":"Mali","population":53738.0},{"id":786,"city":"Taoudenni","lat":22.6666,"lng":-3.9834,"country":"Mali","population":3019.0},{"id":787,"city":"Kayes","lat":14.45,"lng":-11.44,"country":"Mali","population":77207.0},{"id":788,"city":"Sokolo","lat":14.7337,"lng":-6.1333,"country":"Mali","population":4374.0},{"id":789,"city":"Kita","lat":13.0504,"lng":-9.4833,"country":"Mali","population":46435.0},{"id":790,"city":"Nara","lat":15.18,"lng":-7.28,"country":"Mali","population":18459.0},{"id":791,"city":"Kati","lat":12.7504,"lng":-8.08,"country":"Mali","population":66895.0},{"id":792,"city":"Kangaba","lat":11.9404,"lng":-8.44,"country":"Mali","population":17232.0},{"id":793,"city":"San","lat":13.3004,"lng":-4.9,"country":"Mali","population":41386.0},{"id":794,"city":"Bougouni","lat":11.4204,"lng":-7.49,"country":"Mali","population":35450.0},{"id":795,"city":"Koutiala","lat":12.3904,"lng":-5.47,"country":"Mali","population":104927.0},{"id":796,"city":"Djenn\u00e9","lat":13.9,"lng":-4.55,"country":"Mali","population":32944.0},{"id":797,"city":"Y\u00e9liman\u00e9","lat":15.1337,"lng":-10.5666,"country":"Mali","population":988.0},{"id":798,"city":"Bafoulab\u00e9","lat":13.8004,"lng":-10.82,"country":"Mali","population":26823.0},{"id":799,"city":"Nioro du Sahel","lat":15.2304,"lng":-9.59,"country":"Mali","population":14421.0},{"id":800,"city":"Goundam","lat":16.417,"lng":-3.6666,"country":"Mali","population":8456.0},{"id":801,"city":"M\u00e9naka","lat":15.9167,"lng":2.4,"country":"Mali","population":9110.0},{"id":802,"city":"Tessalit","lat":20.2014,"lng":1.0888,"country":"Mali","population":6000.0},{"id":803,"city":"Banamba","lat":13.5504,"lng":-7.45,"country":"Mali","population":30591.0},{"id":804,"city":"Rangoon","lat":16.7834,"lng":96.1667,"country":"Burma","population":4088000.0},{"id":805,"city":"Allanmyo","lat":19.3783,"lng":95.2279,"country":"Burma","population":57897.0},{"id":806,"city":"Mudon","lat":16.2618,"lng":97.7215,"country":"Burma","population":152300.0},{"id":807,"city":"Mawlamyine","lat":16.5004,"lng":97.67,"country":"Burma","population":438861.0},{"id":808,"city":"Phyarpon","lat":16.2933,"lng":95.6829,"country":"Burma","population":65601.0},{"id":809,"city":"Labutta","lat":16.1619,"lng":94.7014,"country":"Burma","population":1667.0},{"id":810,"city":"Dawei","lat":14.098,"lng":98.195,"country":"Burma","population":146212.0},{"id":811,"city":"Myeik","lat":12.4541,"lng":98.6115,"country":"Burma","population":266720.0},{"id":812,"city":"Ye","lat":15.2533,"lng":97.8679,"country":"Burma","population":50798.0},{"id":813,"city":"Namtu","lat":23.0837,"lng":97.4,"country":"Burma","population":48591.0},{"id":814,"city":"Hinthada","lat":17.6483,"lng":95.4679,"country":"Burma","population":180728.0},{"id":815,"city":"Thongwa","lat":16.7547,"lng":96.5193,"country":"Burma","population":52496.0},{"id":816,"city":"Bago","lat":17.32,"lng":96.515,"country":"Burma","population":284318.0},{"id":817,"city":"Pathein","lat":16.7704,"lng":94.75,"country":"Burma","population":237089.0},{"id":818,"city":"Yandoon","lat":17.0433,"lng":95.6429,"country":"Burma","population":36172.0},{"id":819,"city":"Wakema","lat":16.6133,"lng":95.1829,"country":"Burma","population":48405.0},{"id":820,"city":"Pyay","lat":18.8165,"lng":95.2114,"country":"Burma","population":135308.0},{"id":821,"city":"Chauk","lat":20.9085,"lng":94.823,"country":"Burma","population":90870.0},{"id":822,"city":"Myitkyina","lat":25.3596,"lng":97.3928,"country":"Burma","population":139100.0},{"id":823,"city":"Monywa","lat":22.105,"lng":95.15,"country":"Burma","population":226222.0},{"id":824,"city":"Naypyidaw","lat":19.7666,"lng":96.1186,"country":"Burma","population":930000.0},{"id":825,"city":"Loikaw","lat":19.665,"lng":97.206,"country":"Burma","population":17293.0},{"id":826,"city":"Yaynangyoung","lat":20.4615,"lng":94.881,"country":"Burma","population":110553.0},{"id":827,"city":"Kyaukphyu","lat":19.429,"lng":93.5494,"country":"Burma","population":4261.0},{"id":828,"city":"Magway","lat":20.1445,"lng":94.9196,"country":"Burma","population":125973.0},{"id":829,"city":"Shwebo","lat":22.5783,"lng":95.6929,"country":"Burma","population":88914.0},{"id":830,"city":"Sagaing","lat":21.88,"lng":95.962,"country":"Burma","population":78739.0},{"id":831,"city":"Myingyan","lat":21.4618,"lng":95.3914,"country":"Burma","population":163812.0},{"id":832,"city":"Pakokku","lat":21.332,"lng":95.0866,"country":"Burma","population":126938.0},{"id":833,"city":"Mandalay","lat":21.97,"lng":96.085,"country":"Burma","population":1300000.0},{"id":834,"city":"Taunggyi","lat":20.782,"lng":97.038,"country":"Burma","population":160115.0},{"id":835,"city":"Pyu","lat":18.4779,"lng":96.4379,"country":"Burma","population":40386.0},{"id":836,"city":"Taungoo","lat":18.9483,"lng":96.4179,"country":"Burma","population":106945.0},{"id":837,"city":"Letpadan","lat":17.7819,"lng":95.7415,"country":"Burma","population":176571.0},{"id":838,"city":"Sittwe","lat":20.14,"lng":92.88,"country":"Burma","population":179032.0},{"id":839,"city":"Pa-an","lat":16.85,"lng":97.6167,"country":"Burma","population":50000.0},{"id":840,"city":"Hakha","lat":22.65,"lng":93.6167,"country":"Burma","population":20000.0},{"id":841,"city":"Olgiy","lat":48.9337,"lng":89.95,"country":"Mongolia","population":34934.0},{"id":842,"city":"Mandalgovi","lat":45.75,"lng":106.266,"country":"Mongolia","population":2984.0},{"id":843,"city":"Ulaanbaatar","lat":47.9167,"lng":106.9166,"country":"Mongolia","population":885000.0},{"id":844,"city":"M\u00f6r\u00f6n","lat":49.6453,"lng":100.1544,"country":"Mongolia","population":27690.0},{"id":845,"city":"Darhan","lat":49.6167,"lng":106.35,"country":"Mongolia","population":74738.0},{"id":846,"city":"Erdenet","lat":49.0533,"lng":104.1183,"country":"Mongolia","population":79647.0},{"id":847,"city":"Uliastay","lat":47.75,"lng":96.8167,"country":"Mongolia","population":8056.0},{"id":850,"city":"Buyant-Uhaa","lat":44.8666,"lng":110.15,"country":"Mongolia","population":8776.0},{"id":851,"city":"Choybalsan","lat":48.0666,"lng":114.506,"country":"Mongolia","population":33376.0},{"id":852,"city":"Ulaangom","lat":49.9833,"lng":92.0666,"country":"Mongolia","population":35796.0},{"id":853,"city":"Bulgan","lat":48.8106,"lng":103.5317,"country":"Mongolia","population":17348.0},{"id":854,"city":"Arvayheer","lat":46.25,"lng":102.7666,"country":"Mongolia","population":28053.0},{"id":855,"city":"Tsetserleg","lat":47.4769,"lng":101.4502,"country":"Mongolia","population":19812.0},{"id":856,"city":"Bayankhongor","lat":46.3,"lng":100.9833,"country":"Mongolia","population":26252.0},{"id":858,"city":"Dzuunharaa","lat":48.8666,"lng":106.4666,"country":"Mongolia","population":18830.0},{"id":859,"city":"Dzuunmod","lat":47.711,"lng":106.947,"country":"Mongolia","population":17738.0},{"id":860,"city":"Ondorhaan","lat":47.3167,"lng":110.65,"country":"Mongolia","population":14723.0},{"id":862,"city":"Ulaan-Uul","lat":44.3337,"lng":111.2333,"country":"Mongolia","population":3726.0},{"id":863,"city":"Hodrogo","lat":48.9664,"lng":96.7833,"country":"Mongolia","population":10.0},{"id":864,"city":"Baruun Urt","lat":46.7,"lng":113.2833,"country":"Mongolia","population":15805.0},{"id":865,"city":"Suchboatar","lat":50.25,"lng":106.2,"country":"Mongolia","population":24235.0},{"id":866,"city":"Dund-Us","lat":48.0166,"lng":91.6333,"country":"Mongolia","population":30500.0},{"id":867,"city":"Dalandzadgad","lat":43.5836,"lng":104.4403,"country":"Mongolia","population":15093.0},{"id":868,"city":"Macau","lat":22.203,"lng":113.545,"country":"Macau","population":568700.0},{"id":869,"city":"Fort-de-France","lat":14.6104,"lng":-61.08,"country":"Martinique","population":253995.0},{"id":870,"city":"Bogue","lat":16.5904,"lng":-14.27,"country":"Mauritania","population":10415.0},{"id":871,"city":"Chegga","lat":25.3804,"lng":-5.78,"country":"Mauritania","population":10.0},{"id":872,"city":"Boutilimit","lat":17.5504,"lng":-14.7,"country":"Mauritania","population":14142.0},{"id":873,"city":"Timbedra","lat":16.2504,"lng":-8.1666,"country":"Mauritania","population":245.0},{"id":874,"city":"Bir Mogrein","lat":25.2333,"lng":-11.5833,"country":"Mauritania","population":10.0},{"id":875,"city":"Fderik","lat":22.679,"lng":-12.707,"country":"Mauritania","population":5760.0},{"id":876,"city":"S\u00e9libaby","lat":15.167,"lng":-12.1833,"country":"Mauritania","population":460.0},{"id":877,"city":"Aleg","lat":17.058,"lng":-13.909,"country":"Mauritania","population":8388.0},{"id":878,"city":"Akjoujt","lat":19.747,"lng":-14.391,"country":"Mauritania","population":370.0},{"id":879,"city":"Kiffa","lat":16.62,"lng":-11.4,"country":"Mauritania","population":73930.0},{"id":880,"city":"Nema","lat":16.6171,"lng":-7.25,"country":"Mauritania","population":200000.0},{"id":881,"city":"Nouadhibou","lat":20.9,"lng":-17.056,"country":"Mauritania","population":86738.0},{"id":882,"city":"Rosso","lat":16.524,"lng":-15.8127,"country":"Mauritania","population":47203.0},{"id":883,"city":"Tidjikdja","lat":18.55,"lng":-11.4166,"country":"Mauritania","population":19981.0},{"id":884,"city":"Atar","lat":20.5166,"lng":-13.05,"country":"Mauritania","population":44265.0},{"id":886,"city":"Zouirat","lat":22.7304,"lng":-12.4833,"country":"Mauritania","population":56345.0},{"id":890,"city":"Nouakchott","lat":18.0864,"lng":-15.9753,"country":"Mauritania","population":742144.0},{"id":891,"city":"Ayoun el Atrous","lat":16.6666,"lng":-9.6167,"country":"Mauritania","population":1423.0},{"id":912,"city":"Valletta","lat":35.8997,"lng":14.5147,"country":"Malta","population":368250.0},{"id":961,"city":"Port Louis","lat":-20.1666,"lng":57.5,"country":"Mauritius","population":595491.0},{"id":962,"city":"Curepipe","lat":-20.3162,"lng":57.5166,"country":"Mauritius","population":299975.0},{"id":963,"city":"Mal\u00e9","lat":4.1667,"lng":73.4999,"country":"Maldives","population":112927.0},{"id":985,"city":"Mwanza","lat":-15.6167,"lng":34.5167,"country":"Malawi","population":11379.0},{"id":986,"city":"Chiradzulu","lat":-15.7,"lng":35.1833,"country":"Malawi","population":1580.0},{"id":987,"city":"Karonga","lat":-9.9329,"lng":33.9333,"country":"Malawi","population":34207.0},{"id":989,"city":"Zomba","lat":-15.39,"lng":35.31,"country":"Malawi","population":80932.0},{"id":991,"city":"Mulanje","lat":-16.0333,"lng":35.5,"country":"Malawi","population":16483.0},{"id":992,"city":"Blantyre","lat":-15.79,"lng":34.9899,"country":"Malawi","population":584877.0},{"id":993,"city":"Chiromo","lat":-16.55,"lng":35.1332,"country":"Malawi","population":25235.0},{"id":995,"city":"Nsanje","lat":-16.9167,"lng":35.2667,"country":"Malawi","population":21774.0},{"id":996,"city":"Nkhata Bay","lat":-11.5996,"lng":34.3,"country":"Malawi","population":22108.0},{"id":998,"city":"Chitipa","lat":-9.7162,"lng":33.2666,"country":"Malawi","population":13412.0},{"id":999,"city":"Mzuzu","lat":-11.46,"lng":34.02,"country":"Malawi","population":110201.0},{"id":1000,"city":"Mzimba","lat":-11.9,"lng":33.6,"country":"Malawi","population":19308.0},{"id":1003,"city":"Mchinji","lat":-13.8,"lng":32.9,"country":"Malawi","population":18305.0},{"id":1004,"city":"Nkhotakota","lat":-12.9163,"lng":34.3,"country":"Malawi","population":59854.0},{"id":1006,"city":"Ntcheu","lat":-14.8167,"lng":34.6333,"country":"Malawi","population":10445.0},{"id":1007,"city":"Dedza","lat":-14.3667,"lng":34.3333,"country":"Malawi","population":15608.0},{"id":1008,"city":"Salima","lat":-13.7829,"lng":34.4333,"country":"Malawi","population":71181.0},{"id":1009,"city":"Lilongwe","lat":-13.9833,"lng":33.7833,"country":"Malawi","population":646750.0},{"id":1010,"city":"Mangochi","lat":-14.4596,"lng":35.27,"country":"Malawi","population":97711.0},{"id":1012,"city":"Machinga","lat":-14.9667,"lng":35.5167,"country":"Malawi","population":1418.0},{"id":1013,"city":"Nacozari de Garc\u00eda","lat":30.42,"lng":-109.65,"country":"Mexico","population":11872.0},{"id":1014,"city":"Nueva Rosita","lat":27.95,"lng":-101.22,"country":"Mexico","population":36642.0},{"id":1015,"city":"San Felipe","lat":31.0241,"lng":-114.8496,"country":"Mexico","population":20750.0},{"id":1016,"city":"Zacatecas","lat":22.7704,"lng":-102.58,"country":"Mexico","population":234481.0},{"id":1017,"city":"Irapuato","lat":20.67,"lng":-101.5,"country":"Mexico","population":339554.0},{"id":1018,"city":"Vicente Guerrero","lat":30.7641,"lng":-116.0093,"country":"Mexico","population":12829.0},{"id":1019,"city":"San Quint\u00edn","lat":30.4837,"lng":-115.95,"country":"Mexico","population":5433.0},{"id":1020,"city":"Chetumal","lat":18.5,"lng":-88.3,"country":"Mexico","population":154517.0},{"id":1021,"city":"Esperanza","lat":27.58,"lng":-109.93,"country":"Mexico","population":3836.0},{"id":1022,"city":"Izamal","lat":20.9304,"lng":-89.0201,"country":"Mexico","population":14954.0},{"id":1023,"city":"Ticul","lat":20.4004,"lng":-89.53,"country":"Mexico","population":30519.0},{"id":1024,"city":"Villahermosa","lat":18.0,"lng":-92.9,"country":"Mexico","population":428564.0},{"id":1025,"city":"Mazatl\u00e1n","lat":23.2211,"lng":-106.42,"country":"Mexico","population":368204.0},{"id":1026,"city":"Ciudad Victoria","lat":23.72,"lng":-99.13,"country":"Mexico","population":274900.0},{"id":1027,"city":"Mexicali","lat":32.65,"lng":-115.48,"country":"Mexico","population":885000.0},{"id":1028,"city":"Aguascalientes","lat":21.8795,"lng":-102.2904,"country":"Mexico","population":869000.0},{"id":1029,"city":"Chihuahua","lat":28.645,"lng":-106.085,"country":"Mexico","population":793000.0},{"id":1030,"city":"Guanajuato","lat":21.0204,"lng":-101.28,"country":"Mexico","population":112200.0},{"id":1031,"city":"Chilpancingo","lat":17.55,"lng":-99.5,"country":"Mexico","population":182387.0},{"id":1032,"city":"Pachuca","lat":20.1704,"lng":-98.73,"country":"Mexico","population":319581.0},{"id":1033,"city":"Guadalajara","lat":20.67,"lng":-103.33,"country":"Mexico","population":4198000.0},{"id":1034,"city":"Cuernavaca","lat":18.9211,"lng":-99.24,"country":"Mexico","population":834001.0},{"id":1035,"city":"Monterrey","lat":25.67,"lng":-100.33,"country":"Mexico","population":3712000.0},{"id":1036,"city":"L\u00e1zaro C\u00e1rdenas","lat":17.9587,"lng":-102.2,"country":"Mexico","population":160087.0},{"id":1037,"city":"Miahuatl\u00e1n","lat":16.33,"lng":-96.6,"country":"Mexico","population":17632.0},{"id":1038,"city":"Mitla","lat":16.917,"lng":-96.4,"country":"Mexico","population":7547.0},{"id":1039,"city":"Valladolid","lat":20.6704,"lng":-88.2,"country":"Mexico","population":48479.0},{"id":1040,"city":"Ciudad Constituci\u00f3n","lat":25.04,"lng":-111.66,"country":"Mexico","population":39915.0},{"id":1041,"city":"Villa Uni\u00f3n","lat":23.2,"lng":-106.23,"country":"Mexico","population":15443.0},{"id":1042,"city":"Eldorado","lat":24.3305,"lng":-107.37,"country":"Mexico","population":17365.0},{"id":1043,"city":"Tekax","lat":20.2,"lng":-89.28,"country":"Mexico","population":22806.0},{"id":1044,"city":"Montemorelos","lat":25.19,"lng":-99.84,"country":"Mexico","population":42640.0},{"id":1045,"city":"Xalapa","lat":19.53,"lng":-96.92,"country":"Mexico","population":452186.0},{"id":1046,"city":"Teziutl\u00e1n","lat":19.8204,"lng":-97.36,"country":"Mexico","population":177796.0},{"id":1047,"city":"Motul","lat":21.1,"lng":-89.28,"country":"Mexico","population":21253.0},{"id":1048,"city":"M\u00e9rida","lat":20.9666,"lng":-89.6166,"country":"Mexico","population":965000.0},{"id":1049,"city":"Guerrero Negro","lat":27.9904,"lng":-114.17,"country":"Mexico","population":13054.0},{"id":1050,"city":"Saltillo","lat":25.42,"lng":-101.005,"country":"Mexico","population":754000.0},{"id":1051,"city":"Punta Prieta","lat":28.9337,"lng":-114.1666,"country":"Mexico","population":527.0},{"id":1052,"city":"Salina Cruz","lat":16.1671,"lng":-95.2,"country":"Mexico","population":81063.0},{"id":1053,"city":"Durango","lat":24.0311,"lng":-104.67,"country":"Mexico","population":457140.0},{"id":1054,"city":"Acatlan","lat":18.2,"lng":-98.05,"country":"Mexico","population":18879.0},{"id":1055,"city":"Tepic","lat":21.5054,"lng":-104.88,"country":"Mexico","population":318781.0},{"id":1056,"city":"Tecuala","lat":22.4004,"lng":-105.46,"country":"Mexico","population":14921.0},{"id":1057,"city":"Ayutla","lat":16.9004,"lng":-99.22,"country":"Mexico","population":9897.0},{"id":1058,"city":"Huajuapan de Le\u00f3n","lat":17.8104,"lng":-97.79,"country":"Mexico","population":47844.0},{"id":1059,"city":"Pochutla","lat":15.7304,"lng":-96.47,"country":"Mexico","population":24481.0},{"id":1060,"city":"Colima","lat":19.23,"lng":-103.72,"country":"Mexico","population":223287.0},{"id":1061,"city":"Autlan","lat":19.77,"lng":-104.37,"country":"Mexico","population":47669.0},{"id":1062,"city":"Coalcoman","lat":18.7804,"lng":-103.15,"country":"Mexico","population":10715.0},{"id":1063,"city":"Apatzing\u00e1n","lat":19.08,"lng":-102.35,"country":"Mexico","population":98422.0},{"id":1064,"city":"Halach\u00f3","lat":20.48,"lng":-90.08,"country":"Mexico","population":9165.0},{"id":1065,"city":"Peto","lat":20.13,"lng":-88.92,"country":"Mexico","population":17607.0},{"id":1066,"city":"Papasquiaro","lat":24.8304,"lng":-105.34,"country":"Mexico","population":22750.0},{"id":1067,"city":"Puerto Escondido","lat":15.8592,"lng":-97.0659,"country":"Mexico","population":19488.0},{"id":1068,"city":"Hermosillo","lat":29.0989,"lng":-110.9541,"country":"Mexico","population":595811.0},{"id":1069,"city":"Juchitan","lat":16.43,"lng":-95.02,"country":"Mexico","population":67637.0},{"id":1070,"city":"San Luis Potos\u00ed","lat":22.17,"lng":-101.0,"country":"Mexico","population":992000.0},{"id":1071,"city":"Culiac\u00e1n","lat":24.83,"lng":-107.38,"country":"Mexico","population":809000.0},{"id":1072,"city":"Uruapan","lat":19.4204,"lng":-102.07,"country":"Mexico","population":264531.0},{"id":1073,"city":"Tehuantepec","lat":16.33,"lng":-95.23,"country":"Mexico","population":42776.0},{"id":1074,"city":"Salamanca","lat":20.5704,"lng":-101.2,"country":"Mexico","population":197524.0},{"id":1075,"city":"Mexico City","lat":19.4424,"lng":-99.131,"country":"Mexico","population":19028000.0},{"id":1076,"city":"Zamora","lat":19.9804,"lng":-102.28,"country":"Mexico","population":214947.0},{"id":1077,"city":"Tlaxiaco","lat":17.2704,"lng":-97.68,"country":"Mexico","population":21391.0},{"id":1078,"city":"Petatl\u00e1n","lat":17.5204,"lng":-101.27,"country":"Mexico","population":31910.0},{"id":1079,"city":"La Cruz","lat":23.9204,"lng":-106.9,"country":"Mexico","population":11900.0},{"id":1080,"city":"Allende","lat":28.33,"lng":-100.85,"country":"Mexico","population":19636.0},{"id":1081,"city":"Agua Prieta","lat":31.3223,"lng":-109.563,"country":"Mexico","population":86083.0},{"id":1082,"city":"Piedras Negras","lat":28.7076,"lng":-100.5317,"country":"Mexico","population":139619.0},{"id":1083,"city":"Reynosa","lat":26.08,"lng":-98.3,"country":"Mexico","population":498654.0},{"id":1084,"city":"Ojinaga","lat":29.5404,"lng":-104.41,"country":"Mexico","population":22128.0},{"id":1085,"city":"La Paz","lat":24.14,"lng":-110.32,"country":"Mexico","population":189767.0},{"id":1086,"city":"Tapachula","lat":14.9,"lng":-92.27,"country":"Mexico","population":221521.0},{"id":1087,"city":"Escuintla","lat":15.33,"lng":-92.63,"country":"Mexico","population":107638.0},{"id":1088,"city":"Atlixco","lat":18.9,"lng":-98.45,"country":"Mexico","population":97842.0},{"id":1089,"city":"Orizaba","lat":18.85,"lng":-97.13,"country":"Mexico","population":355333.0},{"id":1090,"city":"Taxco","lat":18.5704,"lng":-99.62,"country":"Mexico","population":53217.0},{"id":1091,"city":"Iguala","lat":18.37,"lng":-99.54,"country":"Mexico","population":112106.0},{"id":1092,"city":"Cabo San Lucas","lat":22.8928,"lng":-109.9045,"country":"Mexico","population":42601.0},{"id":1093,"city":"Villanueva","lat":22.35,"lng":-102.88,"country":"Mexico","population":11138.0},{"id":1094,"city":"Tecpan","lat":17.25,"lng":-100.68,"country":"Mexico","population":14638.0},{"id":1095,"city":"Atoyac","lat":17.2,"lng":-100.43,"country":"Mexico","population":20515.0},{"id":1096,"city":"Jaltipan","lat":17.94,"lng":-94.74,"country":"Mexico","population":66998.0},{"id":1097,"city":"La Barca","lat":20.2804,"lng":-102.56,"country":"Mexico","population":35345.0},{"id":1098,"city":"Quer\u00e9taro","lat":20.63,"lng":-100.38,"country":"Mexico","population":961000.0},{"id":1099,"city":"Le\u00f3n","lat":21.15,"lng":-101.7,"country":"Mexico","population":1488000.0},{"id":1100,"city":"Pijijiapan","lat":15.6904,"lng":-93.22,"country":"Mexico","population":23675.0},{"id":1101,"city":"Campeche","lat":19.83,"lng":-90.5,"country":"Mexico","population":205212.0},{"id":1102,"city":"Toluca","lat":19.3304,"lng":-99.67,"country":"Mexico","population":1531000.0},{"id":1103,"city":"Tlaxcala","lat":19.32,"lng":-98.23,"country":"Mexico","population":503878.0},{"id":1104,"city":"Oaxaca","lat":17.0827,"lng":-96.6699,"country":"Mexico","population":530728.0},{"id":1105,"city":"Puebla","lat":19.05,"lng":-98.2,"country":"Mexico","population":2195000.0},{"id":1106,"city":"Tuxtla Guti\u00e9rrez","lat":16.75,"lng":-93.15,"country":"Mexico","population":481128.0},{"id":1107,"city":"Lagos de Moreno","lat":21.3704,"lng":-101.93,"country":"Mexico","population":94127.0},{"id":1108,"city":"Progreso","lat":21.2833,"lng":-89.6666,"country":"Mexico","population":47124.0},{"id":1109,"city":"Tuxpam","lat":20.9604,"lng":-97.41,"country":"Mexico","population":109049.0},{"id":1110,"city":"Balanc\u00e1n","lat":17.8,"lng":-91.53,"country":"Mexico","population":11895.0},{"id":1111,"city":"Tizim\u00edn","lat":21.1304,"lng":-88.15,"country":"Mexico","population":41993.0},{"id":1112,"city":"Los Mochis","lat":25.79,"lng":-109.0,"country":"Mexico","population":249047.0},{"id":1113,"city":"Altata","lat":24.636,"lng":-107.9162,"country":"Mexico","population":1000.0},{"id":1114,"city":"Navajoa","lat":27.0819,"lng":-109.4546,"country":"Mexico","population":116093.0},{"id":1115,"city":"Santa Barbara","lat":26.8004,"lng":-105.82,"country":"Mexico","population":10800.0},{"id":1116,"city":"Ciudad Hidalgo","lat":19.68,"lng":-100.57,"country":"Mexico","population":64154.0},{"id":1117,"city":"Parras","lat":25.4204,"lng":-102.1799,"country":"Mexico","population":32253.0},{"id":1118,"city":"Hidalgo del Parral","lat":26.9334,"lng":-105.6666,"country":"Mexico","population":103378.0},{"id":1119,"city":"Delicias","lat":28.2,"lng":-105.5,"country":"Mexico","population":114783.0},{"id":1120,"city":"Ensenada","lat":31.87,"lng":-116.62,"country":"Mexico","population":256565.0},{"id":1121,"city":"Linares","lat":24.8604,"lng":-99.57,"country":"Mexico","population":57731.0},{"id":1122,"city":"San Juan del R\u00edo","lat":20.38,"lng":-100.0,"country":"Mexico","population":147559.0},{"id":1123,"city":"Minatitl\u00e1n","lat":17.9805,"lng":-94.53,"country":"Mexico","population":201902.0},{"id":1124,"city":"Villa Ahumada","lat":30.6104,"lng":-106.51,"country":"Mexico","population":9326.0},{"id":1125,"city":"Tehuacan","lat":18.4504,"lng":-97.38,"country":"Mexico","population":241429.0},{"id":1126,"city":"Ciudad del Carmen","lat":18.6537,"lng":-91.8245,"country":"Mexico","population":156195.0},{"id":1127,"city":"Morelia","lat":19.7334,"lng":-101.1895,"country":"Mexico","population":644306.0},{"id":1128,"city":"Escuinapa","lat":22.8504,"lng":-105.8,"country":"Mexico","population":28248.0},{"id":1129,"city":"Nezahualcoyotl","lat":19.41,"lng":-99.03,"country":"Mexico","population":1109363.0},{"id":1130,"city":"G\u00f3mez Palacio","lat":25.5701,"lng":-103.5,"country":"Mexico","population":399328.0},{"id":1131,"city":"Para\u00edso","lat":18.4,"lng":-93.23,"country":"Mexico","population":23830.0},{"id":1132,"city":"Frontera","lat":18.5804,"lng":-92.65,"country":"Mexico","population":22621.0},{"id":1133,"city":"Tenosique","lat":17.4804,"lng":-91.43,"country":"Mexico","population":32415.0},{"id":1134,"city":"Tecoman","lat":18.9204,"lng":-103.88,"country":"Mexico","population":91321.0},{"id":1135,"city":"Aldama","lat":22.9204,"lng":-98.07,"country":"Mexico","population":12292.0},{"id":1136,"city":"Loreto","lat":26.0133,"lng":-111.3517,"country":"Mexico","population":11227.0},{"id":1137,"city":"Santa Rosal\u00eda","lat":27.3171,"lng":-112.2834,"country":"Mexico","population":11899.0},{"id":1138,"city":"El Fuerte","lat":26.4204,"lng":-108.62,"country":"Mexico","population":11171.0},{"id":1139,"city":"Guasave","lat":25.5705,"lng":-108.47,"country":"Mexico","population":96860.0},{"id":1140,"city":"Manzanillo","lat":19.0496,"lng":-104.3231,"country":"Mexico","population":110735.0},{"id":1141,"city":"Celaya","lat":20.53,"lng":-100.8,"country":"Mexico","population":383697.0},{"id":1142,"city":"San Pedro de las Colonias","lat":25.7592,"lng":-102.9827,"country":"Mexico","population":53688.0},{"id":1143,"city":"Monclova","lat":26.9,"lng":-101.42,"country":"Mexico","population":236244.0},{"id":1144,"city":"Torre\u00f3n","lat":25.5701,"lng":-103.42,"country":"Mexico","population":1144000.0},{"id":1145,"city":"Nogales","lat":31.305,"lng":-110.945,"country":"Mexico","population":178097.0},{"id":1146,"city":"Rio Verde","lat":21.93,"lng":-99.98,"country":"Mexico","population":69613.0},{"id":1147,"city":"Tamu\u00edn","lat":21.9804,"lng":-98.75,"country":"Mexico","population":14748.0},{"id":1148,"city":"Tamazunchale","lat":21.2704,"lng":-98.78,"country":"Mexico","population":72685.0},{"id":1149,"city":"Ciudad Valles","lat":21.98,"lng":-99.02,"country":"Mexico","population":114964.0},{"id":1150,"city":"Cardenas","lat":22.0,"lng":-99.67,"country":"Mexico","population":15331.0},{"id":1151,"city":"Guam\u00fachil","lat":25.4704,"lng":-108.09,"country":"Mexico","population":62695.0},{"id":1152,"city":"Tijuana","lat":32.5,"lng":-117.08,"country":"Mexico","population":1553000.0},{"id":1153,"city":"Cozumel","lat":20.51,"lng":-86.95,"country":"Mexico","population":73934.0},{"id":1154,"city":"Isla Mujeres","lat":21.2084,"lng":-86.7115,"country":"Mexico","population":12491.0},{"id":1155,"city":"Canc\u00fan","lat":21.17,"lng":-86.83,"country":"Mexico","population":542043.0},{"id":1156,"city":"Felipe Carrillo Puerto","lat":19.5804,"lng":-88.05,"country":"Mexico","population":24807.0},{"id":1157,"city":"Champot\u00f3n","lat":19.3504,"lng":-90.72,"country":"Mexico","population":26636.0},{"id":1158,"city":"Cuencame","lat":24.8704,"lng":-103.7,"country":"Mexico","population":8876.0},{"id":1159,"city":"Canatlan","lat":24.52,"lng":-104.78,"country":"Mexico","population":10342.0},{"id":1160,"city":"Compostela","lat":21.2304,"lng":-104.9,"country":"Mexico","population":16162.0},{"id":1161,"city":"Santiago Ixcuintla","lat":21.82,"lng":-105.22,"country":"Mexico","population":18365.0},{"id":1162,"city":"Tuxpan","lat":21.9304,"lng":-105.27,"country":"Mexico","population":26115.0},{"id":1163,"city":"Matehuala","lat":23.6604,"lng":-100.65,"country":"Mexico","population":67717.0},{"id":1164,"city":"Fresnillo","lat":23.1704,"lng":-102.86,"country":"Mexico","population":105488.0},{"id":1165,"city":"Valpara\u00edso","lat":22.7704,"lng":-103.57,"country":"Mexico","population":10545.0},{"id":1166,"city":"Sabinas Hidalgo","lat":26.51,"lng":-100.18,"country":"Mexico","population":32047.0},{"id":1167,"city":"Ascensi\u00f3n","lat":31.1,"lng":-107.98,"country":"Mexico","population":11781.0},{"id":1168,"city":"Ciudad Ju\u00e1rez","lat":31.6904,"lng":-106.49,"country":"Mexico","population":1343000.0},{"id":1169,"city":"Juan Aldama","lat":24.2904,"lng":-103.39,"country":"Mexico","population":14162.0},{"id":1170,"city":"Caborca","lat":30.7161,"lng":-112.1642,"country":"Mexico","population":57357.0},{"id":1171,"city":"Magdalena","lat":30.6166,"lng":-111.05,"country":"Mexico","population":23359.0},{"id":1172,"city":"Mazatl\u00e1n","lat":29.0171,"lng":-110.1333,"country":"Mexico","population":500000.0},{"id":1173,"city":"Puerto Vallarta","lat":20.6771,"lng":-105.245,"country":"Mexico","population":187134.0},{"id":1174,"city":"Zumpango","lat":19.8104,"lng":-99.11,"country":"Mexico","population":250000.0},{"id":1175,"city":"Nuevo Laredo","lat":27.5,"lng":-99.55,"country":"Mexico","population":349550.0},{"id":1176,"city":"Matamoros","lat":25.88,"lng":-97.5,"country":"Mexico","population":538785.0},{"id":1177,"city":"San Fernando","lat":24.8504,"lng":-98.16,"country":"Mexico","population":29171.0},{"id":1178,"city":"Ciudad Madero","lat":22.3189,"lng":-97.8361,"country":"Mexico","population":192736.0},{"id":1179,"city":"Tampico","lat":22.3,"lng":-97.87,"country":"Mexico","population":859419.0},{"id":1180,"city":"Ciudad Mante","lat":22.7334,"lng":-98.95,"country":"Mexico","population":79981.0},{"id":1181,"city":"Tula","lat":23.0004,"lng":-99.72,"country":"Mexico","population":9054.0},{"id":1182,"city":"Ciudad Guzman","lat":19.7104,"lng":-103.46,"country":"Mexico","population":92161.0},{"id":1183,"city":"Ciudad Camargo","lat":27.6904,"lng":-105.1701,"country":"Mexico","population":37743.0},{"id":1184,"city":"Cuauht\u00e9moc","lat":28.4257,"lng":-106.8696,"country":"Mexico","population":90835.0},{"id":1185,"city":"Nuevo Casas Grandes","lat":30.4185,"lng":-107.9119,"country":"Mexico","population":54826.0},{"id":1186,"city":"Poza Rica de Hidalgo","lat":20.5504,"lng":-97.47,"country":"Mexico","population":254481.0},{"id":1187,"city":"Ometepec","lat":16.6801,"lng":-98.42,"country":"Mexico","population":30271.0},{"id":1188,"city":"Ciudad Altamirano","lat":18.3204,"lng":-100.65,"country":"Mexico","population":24533.0},{"id":1189,"city":"Huatabampo","lat":26.8304,"lng":-109.63,"country":"Mexico","population":30426.0},{"id":1190,"city":"Ciudad Obregon","lat":27.4666,"lng":-109.925,"country":"Mexico","population":288002.0},{"id":1191,"city":"Guaymas","lat":27.93,"lng":-110.89,"country":"Mexico","population":103449.0},{"id":1192,"city":"P\u00e1nuco","lat":22.0604,"lng":-98.19,"country":"Mexico","population":35316.0},{"id":1193,"city":"Cananea","lat":30.9904,"lng":-110.3,"country":"Mexico","population":33433.0},{"id":1194,"city":"Acapulco","lat":16.85,"lng":-99.916,"country":"Mexico","population":715584.0},{"id":1195,"city":"San Cristobal de Las Casas","lat":16.75,"lng":-92.6334,"country":"Mexico","population":186661.0},{"id":1196,"city":"Veracruz","lat":19.1773,"lng":-96.16,"country":"Mexico","population":578963.0},{"id":1197,"city":"Coatzacoalcos","lat":18.1204,"lng":-94.42,"country":"Mexico","population":287285.0},{"id":1198,"city":"Santiago Tuxtla","lat":18.4704,"lng":-95.3,"country":"Mexico","population":15681.0},{"id":1199,"city":"C\u00f3rdoba","lat":18.9204,"lng":-96.92,"country":"Mexico","population":220563.0},{"id":1200,"city":"Nautla","lat":20.2166,"lng":-96.7834,"country":"Mexico","population":2890.0},{"id":1201,"city":"Sibu","lat":2.303,"lng":111.843,"country":"Malaysia","population":203832.0},{"id":1202,"city":"Shah Alam","lat":3.0667,"lng":101.55,"country":"Malaysia","population":481654.0},{"id":1203,"city":"Bintulu","lat":3.1664,"lng":113.036,"country":"Malaysia","population":151617.0},{"id":1204,"city":"Kuching","lat":1.53,"lng":110.33,"country":"Malaysia","population":570407.0},{"id":1206,"city":"Taiping","lat":4.865,"lng":100.72,"country":"Malaysia","population":237095.0},{"id":1207,"city":"Chukai","lat":4.2332,"lng":103.4479,"country":"Malaysia","population":82425.0},{"id":1208,"city":"Kuala Lumpur","lat":3.1667,"lng":101.7,"country":"Malaysia","population":1448000.0},{"id":1209,"city":"Kangar","lat":6.433,"lng":100.19,"country":"Malaysia","population":63869.0},{"id":1210,"city":"Alor Setar","lat":6.1133,"lng":100.3729,"country":"Malaysia","population":336475.0},{"id":1211,"city":"George Town","lat":5.4136,"lng":100.3294,"country":"Malaysia","population":2500000.0},{"id":1212,"city":"Butterworth","lat":5.4171,"lng":100.4,"country":"Malaysia","population":821652.0},{"id":1213,"city":"Sungai Petani","lat":5.6497,"lng":100.4793,"country":"Malaysia","population":358499.0},{"id":1214,"city":"Sandakan","lat":5.843,"lng":118.108,"country":"Malaysia","population":392288.0},{"id":1215,"city":"Lahad Datu","lat":5.0464,"lng":118.336,"country":"Malaysia","population":105622.0},{"id":1216,"city":"Kota Baharu","lat":6.12,"lng":102.23,"country":"Malaysia","population":505583.0},{"id":1217,"city":"Johor Bahru","lat":1.48,"lng":103.73,"country":"Malaysia","population":875000.0},{"id":1218,"city":"Keluang","lat":2.0383,"lng":103.3179,"country":"Malaysia","population":169828.0},{"id":1219,"city":"Kuala Terengganu","lat":5.3304,"lng":103.12,"country":"Malaysia","population":350210.0},{"id":1220,"city":"Ipoh","lat":4.6,"lng":101.065,"country":"Malaysia","population":673318.0},{"id":1221,"city":"Kuantan","lat":3.83,"lng":103.32,"country":"Malaysia","population":366229.0},{"id":1222,"city":"Kota Kinabalu","lat":5.98,"lng":116.11,"country":"Malaysia","population":527671.0},{"id":1223,"city":"Tawau","lat":4.271,"lng":117.896,"country":"Malaysia","population":306462.0},{"id":1224,"city":"Kuala Lipis","lat":4.184,"lng":102.042,"country":"Malaysia","population":15448.0},{"id":1225,"city":"Teluk Intan","lat":4.0119,"lng":101.0314,"country":"Malaysia","population":101659.0},{"id":1226,"city":"Malacca","lat":2.2064,"lng":102.2465,"country":"Malaysia","population":788706.0},{"id":1227,"city":"Muar","lat":2.0337,"lng":102.5666,"country":"Malaysia","population":191346.0},{"id":1228,"city":"Miri","lat":4.3999,"lng":113.9845,"country":"Malaysia","population":228212.0},{"id":1229,"city":"Seremban","lat":2.7105,"lng":101.94,"country":"Malaysia","population":372917.0},{"id":1230,"city":"Putrajaya","lat":2.914,"lng":101.7019,"country":"Malaysia","population":67964.0},{"id":1231,"city":"Raub","lat":3.7927,"lng":101.8423,"country":"Malaysia","population":40024.0},{"id":1232,"city":"Batu Pahat","lat":1.8504,"lng":102.9333,"country":"Malaysia","population":199619.0},{"id":1233,"city":"Kelang","lat":3.0204,"lng":101.55,"country":"Malaysia","population":956000.0},{"id":1234,"city":"Espungabera","lat":-20.4501,"lng":32.77,"country":"Mozambique","population":393.0},{"id":1235,"city":"Quelimane","lat":-17.88,"lng":36.89,"country":"Mozambique","population":188964.0},{"id":1236,"city":"Nicuadala","lat":-17.6077,"lng":36.8197,"country":"Mozambique","population":6945.0},{"id":1237,"city":"Mapai","lat":-22.8427,"lng":31.9631,"country":"Mozambique","population":201.0},{"id":1238,"city":"Mocimboa","lat":-11.3196,"lng":40.35,"country":"Mozambique","population":27909.0},{"id":1239,"city":"Maxixe","lat":-23.866,"lng":35.3886,"country":"Mozambique","population":119868.0},{"id":1240,"city":"Mocambique","lat":-15.0399,"lng":40.6822,"country":"Mozambique","population":54315.0},{"id":1241,"city":"Nampula","lat":-15.136,"lng":39.293,"country":"Mozambique","population":388526.0},{"id":1242,"city":"Massangena","lat":-21.5373,"lng":32.9564,"country":"Mozambique","population":650.0},{"id":1243,"city":"Quissico","lat":-24.7257,"lng":34.766,"country":"Mozambique","population":1210.0},{"id":1244,"city":"Chiramba","lat":-16.8921,"lng":34.6559,"country":"Mozambique","population":556.0},{"id":1245,"city":"Xai-Xai","lat":-25.04,"lng":33.64,"country":"Mozambique","population":128805.0},{"id":1246,"city":"Ligonha","lat":-15.1757,"lng":37.74,"country":"Mozambique","population":3500.0},{"id":1247,"city":"Vilanculos","lat":-21.9995,"lng":35.3166,"country":"Mozambique","population":177.0},{"id":1248,"city":"Dondo","lat":-19.6196,"lng":34.73,"country":"Mozambique","population":78648.0},{"id":1249,"city":"Macia","lat":-25.0195,"lng":33.09,"country":"Mozambique","population":23156.0},{"id":1250,"city":"Moatize","lat":-16.0995,"lng":33.95,"country":"Mozambique","population":42000.0},{"id":1251,"city":"Angoche","lat":-16.23,"lng":39.91,"country":"Mozambique","population":57835.0},{"id":1252,"city":"Cuamba","lat":-14.7896,"lng":36.54,"country":"Mozambique","population":73268.0},{"id":1253,"city":"Inhambane","lat":-23.858,"lng":35.3398,"country":"Mozambique","population":115776.0},{"id":1254,"city":"Beira","lat":-19.82,"lng":34.87,"country":"Mozambique","population":530604.0},{"id":1255,"city":"Lichinga","lat":-13.3,"lng":35.24,"country":"Mozambique","population":109839.0},{"id":1256,"city":"Pemba","lat":-12.983,"lng":40.5323,"country":"Mozambique","population":110643.0},{"id":1257,"city":"Panda","lat":-24.0629,"lng":34.7303,"country":"Mozambique","population":602.0},{"id":1258,"city":"Manica","lat":-18.9696,"lng":32.88,"country":"Mozambique","population":4000.0},{"id":1259,"city":"Nacala","lat":-14.5186,"lng":40.715,"country":"Mozambique","population":224795.0},{"id":1260,"city":"Montepuez","lat":-13.1196,"lng":39.0,"country":"Mozambique","population":72279.0},{"id":1261,"city":"Maputo","lat":-25.9553,"lng":32.5892,"country":"Mozambique","population":1446000.0},{"id":1262,"city":"Mocuba","lat":-16.8496,"lng":38.26,"country":"Mozambique","population":68984.0},{"id":1263,"city":"Marrupa","lat":-13.1984,"lng":37.4995,"country":"Mozambique","population":8762.0},{"id":1264,"city":"Chimoio","lat":-19.12,"lng":33.47,"country":"Mozambique","population":256936.0},{"id":1265,"city":"Tete","lat":-16.17,"lng":33.58,"country":"Mozambique","population":129316.0},{"id":1266,"city":"Matola","lat":-25.9696,"lng":32.46,"country":"Mozambique","population":543907.0},{"id":1267,"city":"Oshikango","lat":-17.3995,"lng":15.88,"country":"Namibia","population":12423.0},{"id":1268,"city":"Okahandja","lat":-21.9796,"lng":16.91,"country":"Namibia","population":20879.0},{"id":1269,"city":"Ongwediva","lat":-17.78,"lng":15.77,"country":"Namibia","population":25032.0},{"id":1270,"city":"Windhoek","lat":-22.57,"lng":17.0835,"country":"Namibia","population":268132.0},{"id":1271,"city":"Oranjemund","lat":-28.5495,"lng":16.43,"country":"Namibia","population":8496.0},{"id":1272,"city":"Otavi","lat":-19.64,"lng":17.342,"country":"Namibia","population":4562.0},{"id":1273,"city":"Rehoboth","lat":-23.3196,"lng":17.08,"country":"Namibia","population":25219.0},{"id":1274,"city":"Bethanie","lat":-26.4995,"lng":17.15,"country":"Namibia","population":10363.0},{"id":1275,"city":"Karasburg","lat":-28.0196,"lng":18.74,"country":"Namibia","population":6054.0},{"id":1276,"city":"Omaruru","lat":-21.436,"lng":15.951,"country":"Namibia","population":11547.0},{"id":1277,"city":"Walvis Bay","lat":-22.9575,"lng":14.5053,"country":"Namibia","population":52058.0},{"id":1278,"city":"Karibib","lat":-21.939,"lng":15.853,"country":"Namibia","population":6898.0},{"id":1279,"city":"L\u00fcderitz","lat":-26.648,"lng":15.1594,"country":"Namibia","population":15137.0},{"id":1280,"city":"Grootfontein","lat":-19.5666,"lng":18.1166,"country":"Namibia","population":24099.0},{"id":1281,"city":"Usakos","lat":-21.9995,"lng":15.58,"country":"Namibia","population":9147.0},{"id":1282,"city":"Outjo","lat":-20.1095,"lng":16.14,"country":"Namibia","population":6557.0},{"id":1283,"city":"Katima Mulilo","lat":-17.4996,"lng":24.26,"country":"Namibia","population":25027.0},{"id":1287,"city":"Gobabis","lat":-22.455,"lng":18.963,"country":"Namibia","population":16321.0},{"id":1288,"city":"Maltah\u00f6he","lat":-24.84,"lng":16.94,"country":"Namibia","population":2329.0},{"id":1289,"city":"Opuwo","lat":-18.0596,"lng":13.82,"country":"Namibia","population":4857.0},{"id":1290,"city":"Swakopmund","lat":-22.6689,"lng":14.535,"country":"Namibia","population":29491.0},{"id":1291,"city":"Keetmanshoop","lat":-26.5739,"lng":18.13,"country":"Namibia","population":18039.0},{"id":1292,"city":"Otjiwarongo","lat":-20.4595,"lng":16.64,"country":"Namibia","population":24815.0},{"id":1293,"city":"Mariental","lat":-24.6196,"lng":17.9599,"country":"Namibia","population":13380.0},{"id":1294,"city":"Rundu","lat":-17.92,"lng":19.7499,"country":"Namibia","population":58172.0},{"id":1296,"city":"Tsumeb","lat":-19.24,"lng":17.71,"country":"Namibia","population":14959.0},{"id":1300,"city":"Noum\u00e9a","lat":-22.2625,"lng":166.4443,"country":"New Caledonia","population":93060.0},{"id":1301,"city":"Niamey","lat":13.5167,"lng":2.1167,"country":"Niger","population":915000.0},{"id":1302,"city":"Maradi","lat":13.4916,"lng":7.0964,"country":"Niger","population":232555.0},{"id":1303,"city":"Zinder","lat":13.8,"lng":8.9833,"country":"Niger","population":230358.0},{"id":1304,"city":"Ayorou","lat":14.7318,"lng":0.9195,"country":"Niger","population":26290.0},{"id":1305,"city":"Gaya","lat":11.8882,"lng":3.4467,"country":"Niger","population":33051.0},{"id":1306,"city":"Arlit","lat":18.82,"lng":7.33,"country":"Niger","population":100000.0},{"id":1307,"city":"Birni Nkonni","lat":13.7904,"lng":5.2599,"country":"Niger","population":65252.0},{"id":1308,"city":"Madaoua","lat":14.0762,"lng":5.9586,"country":"Niger","population":24804.0},{"id":1309,"city":"Tahoua","lat":14.9,"lng":5.2599,"country":"Niger","population":115956.0},{"id":1310,"city":"Nguigmi","lat":14.2532,"lng":13.1108,"country":"Niger","population":17897.0},{"id":1311,"city":"Dosso","lat":13.05,"lng":3.2,"country":"Niger","population":49750.0},{"id":1312,"city":"Gour\u00e9","lat":13.9874,"lng":10.27,"country":"Niger","population":14639.0},{"id":1313,"city":"Diffa","lat":13.3171,"lng":12.6089,"country":"Niger","population":30988.0},{"id":1314,"city":"Tillab\u00e9ri","lat":14.212,"lng":1.4531,"country":"Niger","population":19262.0},{"id":1315,"city":"Djado","lat":21.015,"lng":12.3075,"country":"Niger","population":10.0},{"id":1316,"city":"Agadez","lat":16.9959,"lng":7.9828,"country":"Niger","population":117770.0},{"id":1318,"city":"Abuja","lat":9.0833,"lng":7.5333,"country":"Nigeria","population":1576000.0},{"id":1319,"city":"Uyo","lat":5.008,"lng":7.85,"country":"Nigeria","population":554906.0},{"id":1320,"city":"Akure","lat":7.2504,"lng":5.2,"country":"Nigeria","population":420594.0},{"id":1321,"city":"Koko","lat":11.4232,"lng":4.517,"country":"Nigeria","population":25792.0},{"id":1322,"city":"Port Harcourt","lat":4.81,"lng":7.01,"country":"Nigeria","population":1020000.0},{"id":1323,"city":"Gombe","lat":10.2904,"lng":11.17,"country":"Nigeria","population":270366.0},{"id":1324,"city":"Nsukka","lat":6.867,"lng":7.3834,"country":"Nigeria","population":111017.0},{"id":1325,"city":"Potiskum","lat":11.7104,"lng":11.08,"country":"Nigeria","population":86002.0},{"id":1326,"city":"Damaturu","lat":11.749,"lng":11.966,"country":"Nigeria","population":255895.0},{"id":1327,"city":"Wukari","lat":7.8704,"lng":9.78,"country":"Nigeria","population":92933.0},{"id":1328,"city":"Maiduguri","lat":11.85,"lng":13.16,"country":"Nigeria","population":896000.0},{"id":1329,"city":"Kontagora","lat":10.4004,"lng":5.4699,"country":"Nigeria","population":98754.0},{"id":1330,"city":"Jos","lat":9.93,"lng":8.89,"country":"Nigeria","population":816824.0},{"id":1332,"city":"Ife","lat":7.4804,"lng":4.56,"country":"Nigeria","population":482365.0},{"id":1333,"city":"Abeokuta","lat":7.1604,"lng":3.35,"country":"Nigeria","population":593100.0},{"id":1335,"city":"Lagos","lat":6.4433,"lng":3.3915,"country":"Nigeria","population":9466000.0},{"id":1336,"city":"Ijebu Ode","lat":6.8204,"lng":3.92,"country":"Nigeria","population":209175.0},{"id":1337,"city":"Iwo","lat":7.63,"lng":4.18,"country":"Nigeria","population":250443.0},{"id":1338,"city":"Oshogbo","lat":7.7704,"lng":4.56,"country":"Nigeria","population":408245.0},{"id":1339,"city":"Ilorin","lat":8.49,"lng":4.55,"country":"Nigeria","population":771000.0},{"id":1340,"city":"Gusau","lat":12.1704,"lng":6.66,"country":"Nigeria","population":226857.0},{"id":1342,"city":"Minna","lat":9.62,"lng":6.55,"country":"Nigeria","population":291905.0},{"id":1343,"city":"Ado Ekiti","lat":7.6304,"lng":5.22,"country":"Nigeria","population":446749.0},{"id":1344,"city":"Ibadan","lat":7.38,"lng":3.93,"country":"Nigeria","population":2628000.0},{"id":1345,"city":"Iseyin","lat":7.97,"lng":3.59,"country":"Nigeria","population":98071.0},{"id":1346,"city":"Funtua","lat":11.5204,"lng":7.32,"country":"Nigeria","population":180475.0},{"id":1347,"city":"Katsina","lat":12.9904,"lng":7.6,"country":"Nigeria","population":432149.0},{"id":1348,"city":"Oyo","lat":7.8504,"lng":3.93,"country":"Nigeria","population":736072.0},{"id":1349,"city":"Ogbomosho","lat":8.13,"lng":4.24,"country":"Nigeria","population":951000.0},{"id":1350,"city":"Benin City","lat":6.3405,"lng":5.62,"country":"Nigeria","population":1190000.0},{"id":1351,"city":"Keffi","lat":8.849,"lng":7.8736,"country":"Nigeria","population":85911.0},{"id":1352,"city":"Lafia","lat":8.4904,"lng":8.52,"country":"Nigeria","population":127236.0},{"id":1353,"city":"Ondo","lat":7.0904,"lng":4.84,"country":"Nigeria","population":257005.0},{"id":1354,"city":"Lokoja","lat":7.8004,"lng":6.7399,"country":"Nigeria","population":60579.0},{"id":1355,"city":"Sokoto","lat":13.06,"lng":5.24,"country":"Nigeria","population":732178.0},{"id":1356,"city":"Kaduna","lat":10.52,"lng":7.44,"country":"Nigeria","population":1442000.0},{"id":1357,"city":"Kano","lat":12.0,"lng":8.52,"country":"Nigeria","population":3140000.0},{"id":1358,"city":"Zaria","lat":11.08,"lng":7.71,"country":"Nigeria","population":889000.0},{"id":1359,"city":"Ikare","lat":7.5304,"lng":5.76,"country":"Nigeria","population":1099931.0},{"id":1360,"city":"Owo","lat":7.2004,"lng":5.59,"country":"Nigeria","population":276574.0},{"id":1361,"city":"Dutse","lat":11.7992,"lng":9.3503,"country":"Nigeria","population":17129.0},{"id":1362,"city":"Idah","lat":7.1104,"lng":6.7399,"country":"Nigeria","population":75087.0},{"id":1363,"city":"Mubi","lat":10.2703,"lng":13.27,"country":"Nigeria","population":225705.0},{"id":1364,"city":"Orlu","lat":5.7837,"lng":7.0333,"country":"Nigeria","population":9351.0},{"id":1365,"city":"Bama","lat":11.5204,"lng":13.69,"country":"Nigeria","population":118121.0},{"id":1366,"city":"Bauchi","lat":10.3104,"lng":9.84,"country":"Nigeria","population":316149.0},{"id":1367,"city":"Makurdi","lat":7.73,"lng":8.53,"country":"Nigeria","population":292645.0},{"id":1368,"city":"Oturkpo","lat":7.1904,"lng":8.13,"country":"Nigeria","population":68220.0},{"id":1369,"city":"Onitsha","lat":6.1404,"lng":6.78,"country":"Nigeria","population":73374.0},{"id":1370,"city":"Awka","lat":6.2104,"lng":7.07,"country":"Nigeria","population":500000.0},{"id":1371,"city":"Enugu","lat":6.45,"lng":7.5,"country":"Nigeria","population":688862.0},{"id":1372,"city":"Biu","lat":10.6204,"lng":12.19,"country":"Nigeria","population":95005.0},{"id":1373,"city":"Owerri","lat":5.493,"lng":7.026,"country":"Nigeria","population":215038.0},{"id":1374,"city":"Calabar","lat":4.9604,"lng":8.33,"country":"Nigeria","population":461796.0},{"id":1375,"city":"Sapele","lat":5.8904,"lng":5.68,"country":"Nigeria","population":309162.0},{"id":1376,"city":"Opobo","lat":4.5704,"lng":7.56,"country":"Nigeria","population":34911.0},{"id":1377,"city":"Aba","lat":5.1004,"lng":7.35,"country":"Nigeria","population":897560.0},{"id":1378,"city":"Umuahia","lat":5.532,"lng":7.486,"country":"Nigeria","population":264662.0},{"id":1379,"city":"Warri","lat":5.52,"lng":5.76,"country":"Nigeria","population":830106.0},{"id":1381,"city":"Bida","lat":9.0804,"lng":6.01,"country":"Nigeria","population":173849.0},{"id":1382,"city":"Kumo","lat":10.0457,"lng":11.2131,"country":"Nigeria","population":35712.0},{"id":1383,"city":"Azare","lat":11.6804,"lng":10.19,"country":"Nigeria","population":105687.0},{"id":1384,"city":"Gashua","lat":12.8705,"lng":11.04,"country":"Nigeria","population":125817.0},{"id":1385,"city":"Yola","lat":9.21,"lng":12.48,"country":"Nigeria","population":96006.0},{"id":1386,"city":"Nguru","lat":12.8804,"lng":10.45,"country":"Nigeria","population":111014.0},{"id":1387,"city":"Jalingo","lat":8.9004,"lng":11.36,"country":"Nigeria","population":117757.0},{"id":1388,"city":"Numan","lat":9.4604,"lng":12.04,"country":"Nigeria","population":77617.0},{"id":1389,"city":"Birnin Kebbi","lat":12.4504,"lng":4.1999,"country":"Nigeria","population":108164.0},{"id":1390,"city":"Managua","lat":12.153,"lng":-86.2685,"country":"Nicaragua","population":920000.0},{"id":1391,"city":"San Carlos","lat":11.2,"lng":-84.8333,"country":"Nicaragua","population":13451.0},{"id":1392,"city":"Juigalpa","lat":12.11,"lng":-85.38,"country":"Nicaragua","population":54731.0},{"id":1393,"city":"Boaco","lat":12.47,"lng":-85.66,"country":"Nicaragua","population":29046.0},{"id":1394,"city":"Granada\u200e","lat":11.9337,"lng":-85.95,"country":"Nicaragua","population":105219.0},{"id":1395,"city":"Puerto Cabezas","lat":14.0333,"lng":-83.3834,"country":"Nicaragua","population":43001.0},{"id":1396,"city":"Jinotepe","lat":11.846,"lng":-86.195,"country":"Nicaragua","population":29507.0},{"id":1397,"city":"Jinotega","lat":13.091,"lng":-86.0,"country":"Nicaragua","population":51073.0},{"id":1398,"city":"Le\u00f3n","lat":12.4356,"lng":-86.8794,"country":"Nicaragua","population":164441.0},{"id":1399,"city":"Estel\u00ed","lat":13.09,"lng":-86.36,"country":"Nicaragua","population":107839.0},{"id":1400,"city":"Somoto","lat":13.476,"lng":-86.583,"country":"Nicaragua","population":20316.0},{"id":1401,"city":"Chinandega","lat":12.6304,"lng":-87.13,"country":"Nicaragua","population":139023.0},{"id":1402,"city":"Ocotal","lat":13.63,"lng":-86.473,"country":"Nicaragua","population":33928.0},{"id":1403,"city":"Masaya","lat":11.969,"lng":-86.095,"country":"Nicaragua","population":130113.0},{"id":1404,"city":"Bluefields","lat":12.0,"lng":-83.7649,"country":"Nicaragua","population":44373.0},{"id":1405,"city":"Rivas","lat":11.4404,"lng":-85.82,"country":"Nicaragua","population":31941.0},{"id":1406,"city":"Matagalpa","lat":12.9171,"lng":-85.9167,"country":"Nicaragua","population":109089.0},{"id":1407,"city":"San Juan de Nicaragua","lat":10.9204,"lng":-83.7,"country":"Nicaragua","population":1000.0},{"id":1408,"city":"San Juan del Sur","lat":11.25,"lng":-85.86,"country":"Nicaragua","population":7790.0},{"id":1409,"city":"Maastricht","lat":50.853,"lng":5.677,"country":"Netherlands","population":122378.0},{"id":1410,"city":"Amsterdam","lat":52.35,"lng":4.9166,"country":"Netherlands","population":1031000.0},{"id":1411,"city":"The Hague","lat":52.08,"lng":4.27,"country":"Netherlands","population":1406000.0},{"id":1412,"city":"Haarlem","lat":52.3804,"lng":4.63,"country":"Netherlands","population":349957.0},{"id":1413,"city":"Groningen","lat":53.2204,"lng":6.58,"country":"Netherlands","population":216688.0},{"id":1414,"city":"Middelburg","lat":51.502,"lng":3.61,"country":"Netherlands","population":46485.0},{"id":1416,"city":"Arnhem","lat":51.988,"lng":5.923,"country":"Netherlands","population":141674.0},{"id":1417,"city":"Assen","lat":53.0,"lng":6.55,"country":"Netherlands","population":62237.0},{"id":1418,"city":"'s-Hertogenbosch","lat":51.6833,"lng":5.3167,"country":"Netherlands","population":134520.0},{"id":1419,"city":"Zwolle","lat":52.524,"lng":6.097,"country":"Netherlands","population":111805.0},{"id":1420,"city":"Utrecht","lat":52.1003,"lng":5.12,"country":"Netherlands","population":640000.0},{"id":1421,"city":"Leeuwarden","lat":53.2504,"lng":5.7834,"country":"Netherlands","population":125778.0},{"id":1422,"city":"Rotterdam","lat":51.92,"lng":4.48,"country":"Netherlands","population":1005000.0},{"id":1423,"city":"Eindhoven","lat":51.43,"lng":5.5,"country":"Netherlands","population":398053.0},{"id":1424,"city":"Troms\u00f8","lat":69.6351,"lng":18.992,"country":"Norway","population":52436.0},{"id":1425,"city":"Molde","lat":62.7483,"lng":7.1833,"country":"Norway","population":18594.0},{"id":1426,"city":"Vossavangen","lat":60.63,"lng":6.441,"country":"Norway","population":5571.0},{"id":1427,"city":"Oslo","lat":59.9167,"lng":10.75,"country":"Norway","population":835000.0},{"id":1428,"city":"Lillehammer","lat":61.1333,"lng":10.5,"country":"Norway","population":19542.0},{"id":1429,"city":"B\u00e6rum","lat":59.9135,"lng":11.3472,"country":"Norway","population":113659.0},{"id":1430,"city":"Stavanger","lat":58.97,"lng":5.68,"country":"Norway","population":173132.0},{"id":1432,"city":"Leikanger","lat":61.1833,"lng":6.85,"country":"Norway","population":1965.0},{"id":1433,"city":"Kristiansand","lat":58.1666,"lng":8.0,"country":"Norway","population":63814.0},{"id":1434,"city":"Bergen","lat":60.391,"lng":5.3245,"country":"Norway","population":213585.0},{"id":1435,"city":"Skien","lat":59.2,"lng":9.6,"country":"Norway","population":73330.0},{"id":1436,"city":"Arendal","lat":58.4648,"lng":8.766,"country":"Norway","population":30916.0},{"id":1437,"city":"Hamar","lat":60.82,"lng":11.069,"country":"Norway","population":29479.0},{"id":1438,"city":"T\u00f8nsberg","lat":59.264,"lng":10.421,"country":"Norway","population":38914.0},{"id":1439,"city":"Drammen","lat":59.7572,"lng":10.1907,"country":"Norway","population":90722.0},{"id":1440,"city":"Bod\u00f8","lat":67.2468,"lng":14.399,"country":"Norway","population":34073.0},{"id":1441,"city":"Haugesund","lat":59.4119,"lng":5.2775,"country":"Norway","population":40321.0},{"id":1442,"city":"Svolv\u00e6r","lat":68.2333,"lng":14.5667,"country":"Norway","population":4197.0},{"id":1443,"city":"\u00c5lesund","lat":62.5454,"lng":6.388,"country":"Norway","population":47772.0},{"id":1444,"city":"Harstad","lat":68.7879,"lng":16.5156,"country":"Norway","population":19433.0},{"id":1445,"city":"Finnsnes","lat":69.2406,"lng":18.0086,"country":"Norway","population":3907.0},{"id":1446,"city":"Alta","lat":69.9666,"lng":23.2417,"country":"Norway","population":12077.0},{"id":1447,"city":"Kirkenes","lat":69.725,"lng":30.0516,"country":"Norway","population":3282.0},{"id":1448,"city":"Sandnes","lat":58.8454,"lng":5.69,"country":"Norway","population":46911.0},{"id":1449,"city":"Gj\u00f8vik","lat":60.8,"lng":10.7,"country":"Norway","population":22719.0},{"id":1450,"city":"Mo i Rana","lat":66.3166,"lng":14.1667,"country":"Norway","population":20409.0},{"id":1452,"city":"Moss","lat":59.437,"lng":10.6692,"country":"Norway","population":36901.0},{"id":1453,"city":"Vads\u00f8","lat":70.0966,"lng":29.7657,"country":"Norway","population":5139.0},{"id":1454,"city":"R\u00f8rvik","lat":64.868,"lng":11.2053,"country":"Norway","population":2615.0},{"id":1455,"city":"Namsos","lat":64.4833,"lng":11.5,"country":"Norway","population":9035.0},{"id":1456,"city":"Trondheim","lat":63.4167,"lng":10.4167,"country":"Norway","population":147139.0},{"id":1457,"city":"Steinkjer","lat":64.0171,"lng":11.5,"country":"Norway","population":11274.0},{"id":1458,"city":"Narvik","lat":68.3832,"lng":17.29,"country":"Norway","population":20000.0},{"id":1459,"city":"Hammerfest","lat":70.6613,"lng":23.688,"country":"Norway","population":10000.0},{"id":1460,"city":"Jumla","lat":29.25,"lng":82.2167,"country":"Nepal","population":9073.0},{"id":1461,"city":"Salyan","lat":28.35,"lng":82.1833,"country":"Nepal","population":15000.0},{"id":1462,"city":"Kathmandu","lat":27.7167,"lng":85.3166,"country":"Nepal","population":895000.0},{"id":1463,"city":"Bhairawa","lat":27.5333,"lng":83.3833,"country":"Nepal","population":63367.0},{"id":1464,"city":"Pokhara","lat":28.264,"lng":83.972,"country":"Nepal","population":200000.0},{"id":1465,"city":"Hetauda","lat":27.4167,"lng":85.0334,"country":"Nepal","population":232334.0},{"id":1466,"city":"Dandeldhura","lat":29.3,"lng":80.6,"country":"Nepal","population":19014.0},{"id":1467,"city":"Baglung","lat":28.2667,"lng":83.5833,"country":"Nepal","population":23296.0},{"id":1468,"city":"Ramechhap","lat":27.326,"lng":86.087,"country":"Nepal","population":15000.0},{"id":1469,"city":"Lalitpur","lat":27.6666,"lng":85.3333,"country":"Nepal","population":337785.0},{"id":1470,"city":"Biratnagar","lat":26.4837,"lng":87.2833,"country":"Nepal","population":182324.0},{"id":1471,"city":"Rajbiraj","lat":26.5333,"lng":86.7333,"country":"Nepal","population":33061.0},{"id":1472,"city":"Bhimphedi","lat":27.551,"lng":85.13,"country":"Nepal","population":15000.0},{"id":1473,"city":"Ilam","lat":26.908,"lng":87.926,"country":"Nepal","population":17491.0},{"id":1474,"city":"Dhangarhi","lat":28.695,"lng":80.593,"country":"Nepal","population":92294.0},{"id":1475,"city":"Birganj","lat":27.0004,"lng":84.8666,"country":"Nepal","population":133238.0},{"id":1476,"city":"Nepalganj","lat":28.0503,"lng":81.6167,"country":"Nepal","population":64400.0},{"id":1478,"city":"Masterton","lat":-40.9439,"lng":175.6456,"country":"New Zealand","population":20200.0},{"id":1479,"city":"Gore","lat":-46.0947,"lng":168.9604,"country":"New Zealand","population":9750.0},{"id":1480,"city":"Te Anau","lat":-45.4074,"lng":167.7585,"country":"New Zealand","population":1857.0},{"id":1481,"city":"Invercargill","lat":-46.4094,"lng":168.365,"country":"New Zealand","population":49200.0},{"id":1482,"city":"Ashburton","lat":-43.8983,"lng":171.7486,"country":"New Zealand","population":17700.0},{"id":1483,"city":"Timaru","lat":-44.3972,"lng":171.2425,"country":"New Zealand","population":27200.0},{"id":1484,"city":"Kaikoura","lat":-42.4012,"lng":173.6897,"country":"New Zealand","population":2172.0},{"id":1485,"city":"Christchurch","lat":-43.535,"lng":172.63,"country":"New Zealand","population":363200.0},{"id":1486,"city":"Queenstown","lat":-45.0227,"lng":168.7251,"country":"New Zealand","population":16600.0},{"id":1487,"city":"Porirua","lat":-41.1219,"lng":174.8524,"country":"New Zealand","population":52500.0},{"id":1488,"city":"Wanaka","lat":-44.698,"lng":169.1449,"country":"New Zealand","population":5037.0},{"id":1489,"city":"Nelson","lat":-41.2926,"lng":173.2474,"country":"New Zealand","population":60800.0},{"id":1490,"city":"Picton","lat":-41.2805,"lng":174.0166,"country":"New Zealand","population":2928.0},{"id":1491,"city":"Hamilton","lat":-37.7783,"lng":175.2896,"country":"New Zealand","population":148200.0},{"id":1492,"city":"Dunedin","lat":-45.8854,"lng":170.491,"country":"New Zealand","population":117700.0},{"id":1493,"city":"Thames","lat":-37.1384,"lng":175.5853,"country":"New Zealand","population":6756.0},{"id":1494,"city":"Lower Hutt","lat":-41.2037,"lng":174.9123,"country":"New Zealand","population":102400.0},{"id":1495,"city":"Palmerston North","lat":-40.3527,"lng":175.6072,"country":"New Zealand","population":82400.0},{"id":1496,"city":"Wanganui","lat":-39.9326,"lng":175.0393,"country":"New Zealand","population":43200.0},{"id":1497,"city":"Westport","lat":-41.7638,"lng":171.6028,"country":"New Zealand","population":3900.0},{"id":1498,"city":"Hokitika","lat":-42.7072,"lng":171.01,"country":"New Zealand","population":3078.0},{"id":1499,"city":"Greymouth","lat":-42.4716,"lng":171.2231,"country":"New Zealand","population":10100.0},{"id":1500,"city":"Paraparaumu","lat":-40.9034,"lng":174.9989,"country":"New Zealand","population":25263.0},{"id":1501,"city":"Wellington","lat":-41.3,"lng":174.7833,"country":"New Zealand","population":393400.0},{"id":1502,"city":"Upper Hutt","lat":-41.1355,"lng":175.029,"country":"New Zealand","population":39200.0},{"id":1503,"city":"Levin","lat":-40.6124,"lng":175.2772,"country":"New Zealand","population":19550.0},{"id":1504,"city":"Rotorua","lat":-38.1317,"lng":176.2483,"country":"New Zealand","population":56200.0},{"id":1505,"city":"Tauranga","lat":-37.6964,"lng":176.1536,"country":"New Zealand","population":121500.0},{"id":1506,"city":"Waitangi","lat":-44.0263,"lng":-176.3696,"country":"New Zealand","population":300.0},